Site,Dist,Site name,Start,End,Lat,Lon,STA
1000,1,KARUNJIE,1940,1983,-16.2919,127.1956,WA
1001,1,OOMBULGURRI,1914,2012,-15.1806,127.8456,WA
1002,1,BEVERLEY SP,1959,1967,-16.5825,125.4828,WA
1003,1,PAGO MISSION,1908,1940,-14.1331,126.7158,WA
1004,1,KUNMUNYA,1915,1948,-15.4167,124.7167,WA
1005,1,WYNDHAM PORT,1886,1995,-15.4644,128.1,WA
1006,1,WYNDHAM AERO,1951,..,-15.51,128.1503,WA
1007,1,TROUGHTON ISLAND,1956,..,-13.7542,126.1485,WA
1008,1,MOUNT ELIZABETH OLD SITE,1959,1978,-16.3017,126.1825,WA
1009,1,KURI BAY,1961,2012,-15.4875,124.5222,WA
1010,1,THEDA,1965,..,-14.7885,126.4963,WA
1011,1,PANTA DOWNS,1966,1969,-16.0497,124.95,WA
1012,1,MITCHELL PLATEAU,1968,2002,-14.7925,125.8258,WA
1013,1,WYNDHAM,1968,..,-15.4869,128.1236,WA
1014,1,EMMA GORGE,1998,..,-15.9083,128.1286,WA
1015,1,KING RIVER PUMPING STN,1923,1931,-15.6,128.0833,WA
1016,1,CARSON RIVER STATION,1970,1997,-14.4861,126.7664,WA
1017,1,NULLA NULLA,1923,1926,-15.5,127.8333,WA
1018,1,MOUNT ELIZABETH,1973,..,-16.4181,126.1025,WA
1019,1,KALUMBURU,1997,..,-14.2964,126.6453,WA
1020,1,TRUSCOTT,1944,..,-14.09,126.3867,WA
1021,1,KALUMBURU MISSION,1941,2005,-14.2961,126.6431,WA
1022,1,WYNDHAM SIX MILE HOTEL,1900,1917,-15.4997,128.1997,WA
1023,1,EL QUESTRO,1967,..,-16.0086,127.9806,WA
1024,1,ELLENBRAE,1986,..,-15.9572,127.0628,WA
1025,1,DOONGAN,1988,..,-15.3797,126.3114,WA
1026,1,DRYSDALE RIVER STATION,1988,..,-15.7031,126.3781,WA
1027,1,DIGGERS REST,1971,..,-15.6394,128.0803,WA
1028,1,HOME VALLEY,1991,..,-15.7231,127.8292,WA
1029,1,WYNDHAM NORTH,1989,1996,-15.4467,128.1075,WA
1030,1,KIMBERLEY COASTAL CAMP,1995,..,-14.5786,125.9133,WA
1031,1,FARAWAY BAY,1996,..,-13.96,127.1964,WA
1032,1,MCGOWAN ISLAND,1997,2000,-14.1472,126.6483,WA
1033,1,DRYSDALE RIVER AIRSTRIP,1999,2003,-15.7119,126.3817,WA
1034,1,WEST BASTION,2001,..,-15.4533,128.1239,WA
1035,1,PARRY CREEK FARM,2002,..,-15.5972,128.2783,WA
1036,,DOONGAN ASA,2012,..,-15.3792,126.3108,WA
2000,2,ALICE DOWNS,1904,2004,-17.7569,127.9386,WA
2001,2,ARGYLE DOWNS,1890,..,-16.5039,128.9173,NT
2002,2,BOHEMIA DOWNS,1906,1959,-18.8833,126.2333,WA
2003,2,BOW RIVER,1945,1995,-16.87,128.1836,WA
2004,2,GLEN HILL,1962,1964,-16.5833,128.3667,WA
2005,2,CARLTON HILL,1897,..,-15.4864,128.5344,WA
2006,2,ASCOT,1910,1921,-15.5,128.25,WA
2007,2,DUNHAM RIVER STATION,1920,1973,-16.3167,128.25,WA
2008,2,FLORA VALLEY OLD,1898,1975,-18.3167,128,WA
2009,2,GIBB RIVER,1922,..,-16.4202,126.4412,WA
2010,2,GORDON DOWNS,1919,1997,-18.7506,128.5842,WA
2011,2,OLD HALLS CREEK,1890,1999,-18.2519,127.7817,WA
2012,2,HALLS CREEK METEOROLOGICAL OFFICE,1944,..,-18.2291,127.6636,WA
2013,2,IVANHOE STATION,1907,..,-15.69,128.6833,WA
2014,2,KIMBERLEY RES.STATION,1944,..,-15.6545,128.7091,WA
2015,2,LAMBOO,1920,2007,-18.4086,127.3547,WA
2016,2,LISSADELL,1895,..,-16.6742,128.5533,WA
2017,2,LOUISA DOWNS,1915,1995,-18.7106,126.7111,WA
2018,2,MABEL DOWNS,1922,2004,-17.1792,128.1217,WA
2019,2,MARGARET RIVER STATION,1913,..,-18.6253,126.8617,WA
2020,2,MOOLA BULLA,1903,..,-18.1894,127.5011,WA
2021,2,MOUNT AMHURST,1925,..,-18.3869,126.9892,WA
2022,2,MOUNT WINIFRED,2000,..,-18.016,126.3033,WA
2023,2,NICHOLSON,1921,..,-18.031,128.8941,WA
2024,2,ORD RIVER,1894,1967,-17.4,128.85,WA
2025,2,ROCKHOLE DOWNS,1922,1949,-18.3667,127.5667,WA
2026,2,RUBY PLAINS,1900,..,-18.5959,127.642,WA
2027,2,SPEEWA STATION,1908,1944,-16.35,128.0333,WA
2028,2,SPRING CREEK,1927,..,-16.818,128.8656,WA
2029,2,STURT CREEK,1899,..,-19.1625,128.1633,WA
2030,2,YULMBU,1950,..,-17.2986,126.9158,WA
2031,2,TEXAS DOWNS,1922,1995,-17.0103,128.4669,WA
2032,2,WARMUN,1897,..,-17.0154,128.2174,WA
2033,2,TURNER RIVER,1920,1965,-17.8,128.3,WA
2034,2,ELVIRE,1962,1969,-18.45,127.95,WA
2035,2,GREENVALE,1914,1944,-17.15,127.75,WA
2036,2,OLD MORNINGTON HOMESTEAD,2002,..,-17.3922,126.2306,WA
2037,2,VIOLET VALLEY,1912,1941,-17.3,128,WA
2038,2,KUNUNURRA,1962,1991,-15.7828,128.7353,WA
2039,2,DIMOND GORGE,1963,1989,-17.6667,126.0333,WA
2040,2,SAUNDERS CREEK,1964,1974,-18.0333,127.9833,WA
2041,2,ORD RIVER REGENERATION STATION,1962,1997,-17.385,128.9231,WA
2042,2,GLENROY,1932,1993,-17.3594,126.1086,WA
2043,2,MOUNT KRAUSS,1999,..,-18.3368,126.1243,WA
2044,2,LAKE ARGYLE RESORT,1969,..,-16.1119,128.7414,WA
2045,2,FOAL CREEK,1970,1970,-17.3167,127.7,WA
2046,2,ADA VALE,1920,1925,-16.95,128.1,WA
2047,2,BEDFORD DOWNS,1970,..,-17.2631,127.4617,WA
2048,2,FLORA VALLEY,1970,..,-18.2972,128.4419,WA
2049,2,SOPHIE DOWNS,1980,..,-18.1947,127.8147,WA
2050,2,SPRINGVALE,1991,..,-17.7842,127.6853,WA
2051,2,BILLILUNA,1970,..,-19.5557,127.6661,WA
2052,2,TROPICAL FARM - ORD RIVER,1980,2005,-15.8367,128.7397,WA
2053,2,LANSDOWNE,1947,..,-17.6133,126.7442,WA
2054,2,SPRINGVALE WEST,1971,1972,-17.8333,127.2333,WA
2055,2,LEWIS CREEK,1936,1940,-19.1,128.5333,WA
2056,2,KUNUNURRA AERO,1971,..,-15.7814,128.71,WA
2057,2,BUNGLE BUNGLE NATIONAL PARK,1990,2005,-17.4206,128.2992,WA
2058,2,EUROTO,1935,1940,-18.35,128.4833,WA
2059,2,RUBY CREEK GOLDMINE,1898,1900,-18.4333,127.75,WA
2060,2,KINGSTON REST,1969,..,-16.0397,128.415,WA
2061,2,CARRANYA,1963,..,-19.3322,127.6367,WA
2062,2,FOX RIVER,1975,..,-18.4233,128.0308,WA
2063,2,LARRANGANNI,1976,1978,-19.8761,128.4581,WA
2064,2,ARGYLE AERODROME,1986,..,-16.638,128.4516,WA
2065,2,MORNINGTON,1991,2004,-17.3936,126.2281,WA
2066,2,CARRANYA 2,1991,1995,-19.1764,127.6497,WA
2067,2,KUNUNURRA CHECKPOINT,1993,..,-15.9816,128.9991,WA
2068,2,MARION DOWNS,1993,..,-17.0716,126.8494,WA
2069,2,KACHANA,1993,..,-16.4433,127.7836,WA
2070,2,PHILLIPS RANGE,1994,1995,-16.8828,126.1267,WA
2071,2,HALLS CREEK COMPARISON (OLD),1996,2001,-18.2303,127.6625,WA
2072,2,BEDFORD DOWNS AIRSTRIP,2011,..,-17.2797,127.4648,WA
2073,2,MARGARET RIVER AIRSTRIP,2006,..,-18.6217,126.8831,WA
2074,2,MOOLA BULLA AIRSTRIP,2003,..,-18.1958,127.4948,WA
2075,2,BULKA,1995,..,-19.0372,126.0933,WA
2076,2,MORNINGTON,2004,..,-17.5115,126.1095,WA
2077,2,SIDDINS CREEK,2009,..,-16.9203,126.5511,WA
2078,2,LARRAWA AIRFIELD,2009,..,-18.8318,126.5301,WA
2079,2,HALLS CREEK AIRPORT,2015,..,-18.2337,127.6666,WA
3000,3,BEAGLE BAY,1902,..,-16.9807,122.6662,WA
3001,3,COUNTRY DOWNS,1969,..,-17.2767,122.5711,WA
3002,3,BROOME POST OFFICE,1889,1953,-17.95,122.25,WA
3003,3,BROOME AIRPORT,1939,..,-17.9475,122.2352,WA
3004,3,CAPE LEVEQUE,1917,..,-16.3961,122.9278,WA
3005,3,FAIRFIELD STATION,1950,..,-17.5725,125.0675,WA
3006,3,FITZROY CROSSING COMP.,1893,2000,-18.1919,125.5644,WA
3007,3,DERBY POST OFFICE,1882,1997,-17.3044,123.6292,WA
3008,3,ELLENDALE,1919,..,-17.9281,124.8108,WA
3009,3,JUBILEE DOWNS,1937,..,-18.3547,125.3033,WA
3010,3,KIMBERLEY DOWNS,1885,..,-17.3927,124.3574,WA
3011,3,LEOPOLD DOWNS,1899,..,-17.7535,125.3807,WA
3012,3,LIVERINGA UPPER,1898,2002,-18.0483,124.1728,WA
3013,3,LULUIGUI,1920,1983,-18.145,124.0275,WA
3014,3,GOGO STATION,1908,..,-18.2914,125.5869,WA
3015,3,MEDA,1911,..,-17.368,123.9956,WA
3016,3,MOUNT ANDERSON,1899,1986,-18.0358,123.9286,WA
3017,3,MOUNT HOUSE STATION,1923,..,-17.0516,125.7051,WA
3018,3,MYROODAH,1907,..,-18.1225,124.2692,WA
3019,3,NAPIER DOWNS,1912,..,-17.3305,124.8166,WA
3020,3,NERRIMA,1935,..,-18.4922,124.3992,WA
3021,3,NOONKANBAH,1898,1992,-18.4875,124.8231,WA
3022,3,QUANBUN DOWNS,1898,..,-18.3817,125.2267,WA
3023,3,ROEBUCK PLAINS,1902,..,-17.9315,122.4722,WA
3024,3,UDIALLA,1930,..,-17.9464,123.7383,WA
3025,3,COCKATOO ISLAND,1948,2014,-16.0992,123.6161,WA
3026,3,YEEDA,1890,..,-17.6153,123.6483,WA
3027,3,FOSSIL DOWNS,1904,..,-18.1386,125.7764,WA
3028,3,ANNA PLAINS,1908,..,-19.2536,121.4861,WA
3029,3,FRAZIER DOWNS,1910,1980,-18.7983,121.7125,WA
3030,3,BIDYADANGA,1891,..,-18.6844,121.7803,WA
3031,3,LOMBADINA MISSION,1946,1993,-16.5167,122.8908,WA
3032,3,DERBY AERO,1951,..,-17.3706,123.6611,WA
3033,3,BLINA,1938,..,-17.7472,124.5283,WA
3034,3,ECO BEACH,1998,1999,-18.3381,122.0758,WA
3035,3,MUNJA,1922,1948,-16.4,124.95,WA
3036,3,BROOME QUARANTINE STATION,1952,1953,-18,122.2167,WA
3037,3,MUNKAYARRA,1958,1958,-17.4333,123.75,WA
3038,3,LIVERINGA 2,1958,1960,-17.95,124.1667,WA
3039,3,SILENT GROVE,1959,1972,-16.9667,125.3,WA
3040,3,CAMBALLIN,1958,..,-17.9903,124.1922,WA
3041,3,KILTO STATION,1962,..,-17.6924,122.7127,WA
3042,3,TALGARNO,1959,1963,-19.2833,121.5,WA
3043,3,CHRISTMAS CREEK HOMESTEAD,1960,..,-18.8772,125.9207,WA
3044,3,BROOKING SPRINGS,1901,..,-18.1103,125.6431,WA
3045,3,CALANGADIE,1921,1939,-19.1,121.5,WA
3046,3,CHERRABUN,1906,1972,-18.4833,125.3333,WA
3047,3,DAMPIER DOWNS,1929,1940,-18.4,123.1,WA
3048,3,CHERRABUN,1962,..,-18.9159,125.5264,WA
3049,3,ISADELL DOWNS,1913,1927,-16.9,125.7,WA
3050,3,LIVERINGA LOWER,1887,1896,-17.95,124.1667,WA
3051,3,MOUNT BARNETT,1983,..,-16.7372,125.9086,WA
3052,3,MOUNT HART STATION,1925,..,-16.8214,124.9151,WA
3053,3,OBAGAMA,1895,1934,-16.7,123.9833,WA
3054,3,POINT TORMENT,1904,1923,-17.1,123.7,WA
3055,3,ROLLAH,1907,1919,-18.7,121.75,WA
3056,3,THANGOO,1892,..,-18.1792,122.3583,NT
3057,3,CYGNET BAY,1963,..,-16.4513,123.0087,WA
3058,3,MILLAJIDDIE,1964,1969,-18.8333,124.95,WA
3059,3,NITA DOWNS,1964,..,-19.0861,121.6764,WA
3060,3,ARDJORIE,1966,1973,-18.7667,123.6833,WA
3061,3,KIMBOLTON RANGE STATION 1,1966,1978,-16.695,123.8625,WA
3062,3,BEVERLEY SP,1959,1967,-16.5833,125.4833,WA
3063,3,CHARNLEY RIVER,1968,..,-16.7164,125.46,WA
3064,3,FITZROY A.I.M,1970,1974,-18.1667,125.5833,WA
3065,3,KALYEEDA,1972,1974,-18.55,124.7167,WA
3066,3,PORT SMITH,1973,..,-18.5175,121.8072,WA
3067,3,GLAROSA POULTRY LODGE,1973,1974,-17.3333,123.6833,WA
3068,3,DAMPIER DOWNS,1973,..,-18.5077,123.4561,WA
3069,3,KOOLAN ISLAND,1974,1992,-16.1306,123.7764,WA
3070,3,OOBAGOOMA,1974,1974,-16.7667,123.9833,WA
3071,3,NOONKANBAH AIRSTRIP,1944,1945,-18.5,124.8333,WA
3072,3,ONE ARM POINT,1975,1993,-16.4508,123.0653,WA
3073,3,KIMBOLTON,1970,..,-16.6872,123.8375,WA
3074,3,YAKKAMUNGA,1983,..,-17.9343,123.4736,WA
3075,3,DERBY MAIN ROADS,1983,..,-17.3136,123.6497,WA
3076,3,WESTERN FIELD,1983,1985,-19.3283,125.3886,WA
3077,3,MOWLA BLUFF,1985,1995,-18.5914,123.6133,WA
3078,3,CADJEBUT,1987,2003,-18.7267,125.9875,WA
3079,3,SHELAMAR,1989,..,-18.9897,121.7208,WA
3080,3,CURTIN AERO,1989,..,-17.5768,123.8297,WA
3081,3,CURTIN,1990,1995,-17.5778,123.8222,WA
3082,3,KIRBY GARDENS,1991,2011,-17.8672,122.3631,WA
3083,3,BROOME BIRD OBSERVATORY,1991,1997,-17.9769,122.3431,WA
3084,3,DERBY (MANNING RD),1992,..,-17.3436,123.6781,WA
3085,3,MOUNT JOWLAENGA,1992,2002,-17.4311,123.0389,WA
3086,3,WILLARE BRIDGE,1992,..,-17.7278,123.6547,WA
3087,3,TANJUNGPANDAN,1993,2000,-17.5606,122.1458,WA
3088,2,LARRAWA,1995,..,-18.8375,126.5247,WA
3089,3,BROOME COMPARISON,1995,2000,-17.9492,122.2339,WA
3090,3,DEBESA,1995,..,-17.7981,124.0772,WA
3091,3,BEEFWOOD PARK,1996,..,-18.9894,125.8478,WA
3092,3,SOUTH EAST WATERBANK,1996,1999,-17.8578,122.2725,WA
3093,3,FITZROY CROSSING AERO,1997,..,-18.1814,125.5619,WA
3094,3,WINDJANA GORGE,1997,..,-17.4211,124.9246,WA
3095,3,PILLARA SPRINGS,1998,2003,-18.3192,125.7806,WA
3097,3,BEVERLEY SPRINGS AIRSTRIP,1999,2002,-16.73,125.4386,WA
3098,3,MOUNT HOUSE AIRSTRIP,2002,..,-17.0535,125.712,WA
3099,3,LEOPOLD DOWNS TBRG,2011,..,-17.7535,125.3807,WA
3100,3,LIVERINGA STATION,2001,..,-17.9503,124.2653,WA
3101,3,DAMPIER DOWNS AIRSTRIP,2006,..,-18.5096,123.4676,WA
3102,3,BROOME NTC AWS,1991,..,-18.0015,122.2176,WA
3103,3,MIDDLE LAGOON,2004,..,-16.7742,122.5762,WA
3104,3,BIDAN,2005,..,-17.645,123.1678,WA
3105,3,LAUREL DOWNS,2007,..,-18.1105,125.3347,WA
3106,3,ELLENDALE MINESITE,2007,2015,-17.5669,124.8411,WA
3107,3,SILVER GULL CREEK,2014,2015,-16.1903,123.7025,WA
3108,3,YAMPI SOUND (DEFENCE),2018,..,-16.7671,123.981,WA
3109,3,BROOME NTC AWS COMPARISON,2011,..,-18.0008,122.2183,WA
4000,4,ABYDOS,1917,1974,-21.4167,118.9333,WA
4001,4,WOODBROOK,1897,1974,-20.9,117.1167,WA
4002,4,PORT HEDLAND POST OFFICE,1897,1948,-20.3139,118.5742,WA
4003,4,BALFOUR DOWNS,1907,1998,-22.8,120.8625,WA
4004,4,BAMBOO CREEK,1897,..,-20.9264,120.2075,WA
4005,4,BAMBOO SPRINGS,1905,1978,-22.0517,119.6325,WA
4006,4,BONNEY DOWNS,1907,..,-22.1828,119.935,WA
4007,4,BOODARIE,1887,1973,-20.4,118.4667,WA
4008,4,CARLINDIE,1907,..,-20.6392,119.2431,WA
4009,4,COONGAN STATION,1904,1974,-20.6833,119.6667,WA
4010,4,COOYA POOYA,1900,1974,-21.0333,117.1333,WA
4011,4,CORUNNA DOWNS,1897,1975,-21.4667,119.8333,WA
4012,4,DE GREY,1888,..,-20.1756,119.1908,WA
4013,4,ETTRICK,1901,1964,-20.5167,119.6667,WA
4014,4,EGINBAH,1930,1974,-20.85,119.7667,WA
4015,4,HILLSIDE STATION,1917,..,-21.7219,119.3989,WA
4016,4,INDEE,1909,..,-20.7867,118.5972,WA
4017,4,STATION PEAK,1904,1911,-21.15,118.1,WA
4018,4,LIMESTONE,1925,1967,-21.1833,119.8167,WA
4019,4,MANDORA,1913,..,-19.7419,120.8433,WA
4020,4,MARBLE BAR COMPARISON,1895,2006,-21.1756,119.7497,WA
4021,4,MOUNT EDGAR,1901,1999,-21.3122,120.0586,WA
4022,4,MUCCAN,1898,..,-20.6334,120.0863,WA
4023,4,MULYIE,1888,..,-20.4619,119.5189,WA
4024,4,MUNDABULLANGANA,1899,..,-20.5192,118.0603,WA
4025,4,NIMINGARRA,1909,1966,-20.5,119.8,WA
4026,4,NOREENA DOWNS,1911,..,-22.2914,120.1761,WA
4027,4,NULLAGINE,1897,2004,-21.8861,120.1103,WA
4028,4,PARDOO STATION,1904,..,-20.1078,119.5811,WA
4029,4,COORAGOORA,1954,..,-19.9604,120.2744,WA
4030,4,PILGA,1915,1961,-21.4,119.4,WA
4031,4,POINT SAMSON,1949,1984,-20.6267,117.1925,WA
4032,4,PORT HEDLAND AIRPORT,1942,..,-20.3725,118.6317,WA
4033,4,PYRAMID STATION,1951,..,-21.0561,117.4436,WA
4034,4,RPF 734 MILE,1913,1947,-22.0167,121.4,WA
4035,4,ROEBOURNE,1887,..,-20.7767,117.1456,WA
4036,4,STRELLEY,1906,..,-20.4681,119.0556,WA
4037,4,TALGA TALGA,1897,1970,-21.05,120,WA
4038,4,WALLAREENYA,1908,..,-20.7483,118.8172,WA
4039,4,WARAMBIE,1937,..,-20.9484,117.3732,WA
4040,4,WARRALONG,1899,1984,-20.6472,119.5869,WA
4041,4,WARRAWAGINE,1897,..,-20.8508,120.6961,WA
4042,4,WHIM CREEK,1897,..,-20.8414,117.8353,WA
4043,4,REDMONT,1925,2012,-21.9931,119.0131,WA
4044,4,WIDJUP OUTCAMP,1921,1948,-19.5,121.3,WA
4045,4,ABYDOS WOODSTOCK,1901,1997,-21.62,118.955,WA
4046,4,YARRIE,1898,..,-20.6739,120.2044,WA
4047,4,TABBA TABBA,1924,1976,-20.8333,118.9,WA
4048,4,YANDEEARRA,1902,1999,-21.2853,118.4042,WA
4049,4,SPLIT ROCK,1927,1949,-21.6,119.6,WA
4050,4,YALGOORA,1937,1949,-21.6,119.7,WA
4051,4,BALLA BALLA,1898,1927,-20.6,117.8,WA
4052,4,RPF 80 MILE,1909,1943,-20.5667,120.65,WA
4053,4,CONDON,1889,1927,-20,119.4,WA
4054,4,COSSACK,1881,..,-20.6783,117.1892,WA
4055,4,CROYDON,1900,1946,-21.1,117.8,WA
4056,4,KANGAN,1935,1945,-21.1,118.5167,WA
4057,4,LALLA ROOKH,1917,1973,-20.8833,119.15,WA
4058,4,LOCHNAVAR,1912,1919,-20.7,121.0167,WA
4059,4,MALLINA,1900,..,-20.8822,118.0308,WA
4060,4,MIDDLE CREEK,1904,1915,-21.8,120.3,WA
4061,4,MOUNT SATIRIST,1912,1947,-21.1,117.9833,WA
4062,4,MYADEE,1913,1942,-20.1,119.75,WA
4063,4,POONDAWINDIE,1930,1938,-22.2,120.2,WA
4064,4,POONDINIA,1913,1936,-20.45,118.8,WA
4065,4,RPF 672 MILE,1913,1947,-22.7,121.1,WA
4066,4,RPF 798 MILE,1913,1942,-21.2,121.2,WA
4067,4,SHAW RIVER,1917,1942,-20.55,119.3,WA
4068,4,WALLAL DOWNS,1897,..,-19.7789,120.6417,WA
4069,4,WARRAWOONA,1899,1914,-21.3,119.8,WA
4070,4,COONGAN HOTEL,1895,1931,-20.9,119.7,WA
4071,4,PYRAMID 1,1885,1894,-21.05,117.45,WA
4072,4,ROSEMARY ISLAND,1963,1964,-20.4833,116.5333,WA
4073,4,NICOL PADDOCK,1967,1968,-20.9,116.9167,WA
4074,4,GOLDSWORTHY,1966,1992,-20.3422,119.5206,WA
4075,4,HARDING RIVER 1,1967,1989,-21.1389,117.085,WA
4076,4,HARDING RIVER 2,1967,1989,-21.175,117.2208,WA
4077,4,BARRAMINE,1914,1918,-20.7167,120.85,WA
4078,4,COONGAN 2,1973,1973,-20.7,119.35,WA
4079,4,YANDEE,1971,1982,-21.3625,118.8783,WA
4080,4,CALLAWA,1904,1980,-20.635,120.5,WA
4081,4,CORUNNA DOWNS AIRSTRIP,1943,1945,-21.4333,119.7833,WA
4082,4,CAPE LAMBERT,1971,2004,-20.615,117.1633,WA
4083,4,KARRATHA AERO,1971,..,-20.7097,116.7742,WA
4084,4,SHAY GAP,1972,1993,-20.4958,120.1672,WA
4085,4,TAMBOURAH,1898,1901,-21.75,119.1833,WA
4086,4,SHERLOCK,1956,..,-20.8956,117.6447,WA
4087,4,HARDING RIVER 3,1967,1989,-21.2333,117.05,WA
4088,4,NORTH POLE,1977,1984,-21.1467,119.4333,WA
4089,4,WICKHAM,1981,2010,-20.6744,117.1428,WA
4090,4,ROEBOURNE AERO,2001,..,-20.7594,117.1583,WA
4091,4,KING BAY SUPPLY BASE,1988,1997,-20.5978,116.7764,WA
4092,4,HARDING DAM,1983,2005,-20.9786,117.0953,WA
4093,4,STRELLEY PUMPING STATION,1983,2001,-20.3292,119.1878,WA
4094,4,NIMINGARRA MINE,1989,1994,-20.4119,120.0103,WA
4095,4,LEGENDRE ISLAND,1992,..,-20.3583,116.8431,WA
4096,4,MOUNT DIVIDE,1988,1998,-22.4272,120.8578,WA
4097,4,DAMPIER PORT,1991,2001,-20.6175,116.7517,WA
4098,4,DE GREY BOREFIELD,1990,2001,-20.2906,119.28,WA
4099,4,KARRATHA TOWN,1992,1994,-20.7381,116.8489,WA
4100,4,BEDOUT ISLAND,1993,..,-19.5894,119.1,WA
4101,4,R 1 BOREHOLE,1972,1983,-20.3167,119.3333,WA
4102,4,MEENTHEENA,1993,..,-21.2669,120.4544,WA
4103,4,NIFTY COPPER MINE,1997,..,-21.6525,121.5592,WA
4104,4,PORT HEDLAND MILOS AWS COMPARISON,1998,2001,-20.3736,118.6297,WA
4105,4,NULLAGINE NORTH,1999,2000,-21.8603,120.1592,WA
4106,4,MARBLE BAR,2000,..,-21.1756,119.7497,WA
5000,5,BOOLALOO,1911,1951,-22.5833,115.85,WA
5001,5,COOLAWANYAH,1923,..,-21.8047,117.8056,WA
5002,5,DUCK CREEK,1946,1998,-22.515,116.5825,WA
5003,5,ETHEL CREEK,1907,..,-22.8972,120.1733,WA
5004,5,EXMOUTH GULF,1915,..,-22.3761,114.1105,WA
5005,5,HAMERSLEY,1912,..,-22.2794,117.6775,WA
5006,5,KOOLINE,1896,..,-22.9119,116.2903,WA
5007,5,LEARMONTH AIRPORT,1945,..,-22.2406,114.0967,WA
5008,5,MARDIE,1885,..,-21.1906,115.9797,WA
5009,5,MARILLANA,1936,..,-22.6331,119.4081,WA
5010,5,MARRILLA,1927,2001,-22.9742,114.4597,WA
5011,5,MEILGA,1914,1958,-22.7,115.8,WA
5012,5,MILLSTREAM,1897,..,-21.5906,117.0656,WA
5013,5,MINDEROO,1912,..,-21.9969,115.0463,WA
5014,5,MOUNT FLORANCE,1886,..,-21.7869,117.8647,WA
5015,5,MULGA DOWNS,1897,2019,-22.1039,118.4703,WA
5016,5,ONSLOW,1886,2012,-21.6364,115.1117,WA
5017,5,ONSLOW AIRPORT,1940,..,-21.6689,115.1092,WA
5018,5,PEEDAMULLAH,1895,1973,-21.85,115.6167,WA
5019,5,WARRAMBOO,1961,1963,-21.6333,115.85,WA
5020,5,NINGALOO,1898,..,-22.6975,113.6744,WA
5021,5,RANGE,1927,1968,-22.2667,115.4167,WA
5022,5,RED HILL,1898,..,-21.975,116.0653,WA
5023,5,ROY HILL,1900,1998,-22.6217,119.9564,WA
5024,5,VLAMINGH HEAD,1913,1997,-21.8067,114.1072,WA
5025,5,WARRIE,1927,1964,-22.4,119.5333,WA
5026,,WITTENOOM,1949,2019,-22.2425,118.3358,WA
5027,5,WITTENOOM GORGE,1949,1950,-22.3167,118.3167,WA
5028,5,WYLOO,1903,..,-22.6906,116.2328,WA
5029,5,YALLEEN,1930,..,-21.6767,116.3928,WA
5030,5,YANREY,1897,..,-22.5064,114.7944,WA
5031,5,YARDIE CREEK,1915,1982,-21.8875,114.0092,WA
5032,5,YARRALOOLA HOMESTEAD,1898,..,-21.5703,115.8786,WA
5033,5,KOORDARRIE,1915,..,-22.3419,114.9319,WA
5034,5,MOUNT STUART,1899,..,-22.4558,116.0508,WA
5035,5,TAMBREY,1896,1949,-21.6,117.6,WA
5036,5,GLEN FLORRIE STATION,1921,..,-22.9367,115.9825,WA
5037,5,KANGIANGI,1954,1972,-21.7,117.45,WA
5038,5,CHINGINARRA,1890,1909,-21.3667,115.85,WA
5039,5,LEARMONTH ARTESIAN,1916,1922,-22.6,114.4,WA
5040,5,BALMORAL,1912,..,-21.1594,116.1197,WA
5041,5,COORARA STATION,1907,1948,-22.6,116.1,WA
5042,5,DEEPDALE 1,1911,1929,-21.7,116.1,WA
5043,5,DIOMENOR,1933,1942,-21.9,115.2,WA
5044,5,FORTESCUE,1887,1927,-21.0583,116.1111,WA
5045,5,GIRALIA,1913,..,-22.685,114.3673,WA
5046,5,HARDY JUNCTION,1888,1936,-22.7,116.1,WA
5047,5,KERDIADARY,1901,1910,-22.25,119.1,WA
5048,5,NANUTARRA,1898,1997,-22.5403,115.4981,WA
5049,5,TABLELAND,1907,1915,-21.6,117.6,WA
5050,5,MOUNT ENID,1917,1931,-21.6,116.4,WA
5051,5,EXMOUTH TOWN,1964,..,-21.9303,114.126,WA
5052,5,KARRATHA STATION,1900,..,-20.8831,116.6725,WA
5053,5,EAST INTERCOURSE ISLAND,1966,1997,-20.6553,116.6789,WA
5054,5,DEVILS BROOK,1966,1968,-20.8667,116.45,WA
5055,5,WITTENOOM AERO,1964,2010,-22.2275,118.345,WA
5056,5,BLACK HILLS,1967,1976,-21.2333,117.05,WA
5057,5,HARDING RIVER,1967,1989,-21.3417,117.0833,WA
5058,5,BARROW ISLAND,1967,2000,-20.8206,115.3931,WA
5059,,MOUNT LIONEL AIRSTRIP,1967,..,-22.6087,117.6313,WA
5060,5,NAVY CHARLIE,1968,1971,-22.3333,114.05,WA
5061,5,DAMPIER SALT,1969,..,-20.7278,116.7483,WA
5062,5,JAMINU OUTCAMP,1924,1930,-22.3167,115.1833,WA
5063,5,MOUNT BROCKMAN,1969,1976,-22.3,117.2833,WA
5064,5,SAND HILL,1971,1984,-22.7825,119.6172,WA
5065,5,MONTE BELLO ISLANDS,1956,1956,-20.4167,115.55,WA
5066,5,UAROO,1916,..,-22.7814,115.3722,WA
5067,5,CANE RIVER,1966,1997,-22.0894,115.6239,WA
5068,5,BULLARA,1957,..,-22.6811,114.0394,WA
5069,5,PANNAWONICA,1971,..,-21.6392,116.3308,WA
5070,5,ROBE,1972,..,-21.3567,115.8208,WA
5071,5,PINDRAL OUTCAMP,1972,..,-21.3444,115.9356,WA
5072,5,TOM PRICE,1972,2011,-22.6967,117.7703,WA
5073,5,HOOLEY,1972,..,-21.8836,118.2217,WA
5074,5,MARANDOO,1974,1997,-22.6344,118.1119,WA
5075,5,NAVY ALPHA,1974,1976,-21.8222,114.1714,WA
5076,5,TOM PRICE AERO,1976,1996,-22.745,117.6656,WA
5077,5,EXMOUTH EMERGENCY SERVICE,1976,1980,-21.9325,114.1111,WA
5078,5,URALA,1977,..,-21.7666,114.8211,WA
5079,5,THEVENARD ISLAND,1978,1997,-21.4625,115.0194,WA
5080,5,CAPE RANGE,1978,..,-22.1033,113.9997,WA
5081,5,DAMPIER RADAR,1986,..,-20.6544,116.6822,WA
5082,5,ERAMURRA POOL,1987,..,-21.0544,116.2575,WA
5083,5,KARRATHA WATER RESOURCES,1974,1996,-20.7692,116.8603,WA
5084,5,THEVENARD ISLAND,1989,..,-21.4609,115.0188,WA
5085,5,ROCKLEA,1990,..,-22.8853,117.4464,WA
5086,5,FORTESCUE ROAD HOUSE,1992,2008,-21.2947,116.1383,WA
5087,5,MILLSTREAM CWS PUMPING STATION,1972,1985,-21.5833,117.05,WA
5088,5,MULYERING,1992,..,-21.2475,116.0733,WA
5089,5,PACKSADDLE CAMP,1989,2002,-22.9003,118.7031,WA
5090,5,MOUNT MINNIE,1997,..,-21.9711,115.4324,WA
5091,5,DAMPIER  H.I.,1997,1998,-20.6561,116.7233,WA
5092,5,LEARMONTH MILOS AWS COMPARISON,1998,2001,-22.2367,114.0869,WA
5093,5,AUSKI MUNJINA ROADHOUSE,1998,..,-22.3767,118.6886,WA
5094,5,BARROW ISLAND AIRPORT,1998,..,-20.874,115.4066,WA
5095,5,CHEELA PLAINS,2002,..,-22.9367,116.9731,WA
5096,6,POINT MURAT NAVY PIER,2007,..,-21.8167,114.191,WA
5097,5,LEARMONTH SOLAR OBSERVATORY,2013,..,-22.2183,114.1031,NSW
5098,5,KARIJINI NORTH,2018,..,-22.2999,118.4498,WA
6000,6,BIDGEMIA,1887,..,-25.0417,115.3092,WA
6001,6,BILLABALONG,1901,..,-27.4231,115.8347,WA
6002,6,BINTHALYA,1904,1979,-24.685,114.8358,WA
6003,6,BOOLATHANA,1897,..,-24.6525,113.6936,WA
6004,6,BOOLOGOORO,1904,1982,-24.3333,114.0242,WA
6005,6,BRICKHOUSE,1903,..,-24.8208,113.7853,WA
6006,6,BULLARDOO,1910,1985,-27.855,115.6733,WA
6007,6,TALISKER,1998,2004,-26.2739,115.2578,WA
6008,6,CALLAGIDDY STATION,1910,..,-25.0481,114.0294,WA
6009,6,CARDABIA,1913,..,-23.1044,113.8038,WA
6010,6,CAREY DOWNS,1910,..,-25.6114,115.4625,WA
6011,6,CARNARVON AIRPORT,1945,..,-24.8878,113.67,WA
6012,6,CARRARANG,1894,2000,-26.4628,113.505,WA
6013,6,COBURN STATION,1946,2010,-26.6972,114.3181,WA
6014,6,COOKERABINGIE,1929,1955,-23.5,114.1,WA
6015,6,COORALYA,1891,..,-24.4453,114.0779,WA
6016,6,CORDALIA,1931,1949,-23.3,114.7,WA
6017,6,DAIRY CREEK,1900,..,-25.2786,115.8633,WA
6018,6,DIRK HARTOG ISLAND,1893,1948,-26.0333,113.2167,WA
6019,6,DOORAWARRAH,1897,..,-24.806,114.431,WA
6020,6,EDAGGEE,1915,..,-25.36,114.2292,WA
6021,6,EUDAMULLAH,1928,..,-24.4508,115.6072,WA
6022,6,GASCOYNE JUNCTION,1907,..,-25.0544,115.21,WA
6023,6,GNARALOO,1912,..,-23.8222,113.5256,WA
6024,6,GOOMBARDIE,1929,1954,-24.6667,114.35,WA
6025,6,HAMELIN POOL,1885,..,-26.3994,114.1658,WA
6026,6,HAMELIN STATION,1926,..,-26.4278,114.1916,WA
6027,6,JIMBA JIMBA,1888,..,-25.0442,115.1331,WA
6028,6,THE OVERLANDER,1959,1970,-26.4,114.4667,WA
6029,6,LYNDON,1898,..,-23.6361,115.2461,WA
6030,6,LYONS RIVER,1906,..,-24.6314,115.3383,WA
6031,6,MANGAROON,1906,1981,-23.915,115.6183,WA
6032,6,MARDATHUNA,1918,..,-24.4733,114.5553,WA
6033,6,MAROONAH,1896,..,-23.4796,115.5478,WA
6034,6,MARRON,1911,..,-25.3656,114.3594,WA
6035,6,MEADOW STATION,1932,1985,-26.7025,114.6183,WA
6036,6,MEEDO,1899,..,-25.6631,114.6261,WA
6037,6,MERLINLEIGH,1925,1982,-24.3142,115.1892,WA
6038,6,MIA MIA,1903,..,-23.3817,114.4375,WA
6039,6,MINILYA,1901,..,-23.8497,113.9714,WA
6040,6,MINNIE CREEK,1900,..,-24.0306,115.6967,WA
6041,6,MOOGOOREE,1920,1981,-24.0633,115.205,WA
6042,6,MOUNT SANDIMAN,1947,2003,-24.4117,115.3958,WA
6043,6,NEW FOREST,1900,1987,-27.37,115.6517,WA
6044,6,DENHAM,1893,..,-25.9265,113.5325,WA
6045,6,TAMALA,1900,..,-26.6969,113.7158,WA
6046,6,TOWERA,1892,2000,-23.1747,115.1194,WA
6047,6,TOWRANA,1914,1995,-25.405,115.2267,WA
6048,6,TWIN PEAKS,1903,2011,-27.3853,115.9664,WA
6049,6,WAIL,1906,1944,-27.1,115.5,WA
6050,6,WANDAGEE,1890,..,-23.7647,114.5539,WA
6051,6,WANDINA,1945,2007,-27.9864,115.6306,WA
6052,6,WILLIAMBURY,1888,..,-23.8608,115.1475,WA
6053,6,WINDERIE,1909,..,-25.3021,115.1164,WA
6054,6,WOODLEIGH,1926,..,-26.0511,114.7542,WA
6055,6,WOOLGORONG,1904,..,-27.7456,115.8286,WA
6056,6,WOORAMEL,1898,..,-25.74,114.2847,WA
6057,6,YALBALGO,1909,..,-25.1883,114.68,WA
6058,6,YALLALONG,1904,..,-27.4278,115.5147,WA
6059,6,YARINGA STATION,1923,..,-25.9436,114.3222,WA
6060,6,CARBLA STATION,1913,..,-26.2011,114.2869,WA
6061,6,MEERAGOOLIA,1947,2011,-24.9017,114.2164,WA
6062,6,CARNARVON POST OFFICE,1883,1951,-24.885,113.6569,WA
6063,6,COOLCALALYA,1929,1943,-27.5167,115.05,WA
6064,6,MOOGOOREE O.S.,1930,1947,-24.2167,115.3833,WA
6065,6,PLEAIDES,1929,1954,-23.4,114.7,WA
6066,6,WINNING,1898,..,-23.1567,114.5403,WA
6067,6,MIA MIA 2 SUB BORE,1953,1955,-23.5,114.0167,WA
6068,6,WAHROONGA,1953,..,-25.4906,114.3981,WA
6069,6,MOUNT NARRYER,1900,..,-26.5903,115.9267,WA
6070,6,HILL SPRINGS,1949,..,-24.3058,114.5003,WA
6071,6,MUGGON,1932,2018,-26.6167,115.5467,WA
6072,6,EMU CREEK STATION,1898,..,-23.0314,115.0414,WA
6073,6,BERNIER ISLAND,1901,1918,-24.8333,113.3,WA
6074,6,MILLIE MILLIE,1889,1897,-24.8667,114.5833,WA
6075,6,BOODALIA,1921,1934,-25.2,113.9,WA
6076,6,BOOLAGOORDA,1912,1919,-26.3,114.25,WA
6077,6,BOUNDARY STORE,1918,1928,-25.3,115.6,WA
6078,6,CALLATHARRA,1928,1939,-25.8,115.1,WA
6079,6,ELLA VALLA,1907,2005,-25.0881,114.3836,WA
6080,6,NANGA,1963,1996,-26.2564,113.8064,WA
6081,6,NILEMAH,1915,1931,-26.4,114.05,WA
6082,6,POINT CHARLES,1906,1930,-24.5,113.5,WA
6083,6,SHAWS TANK,1922,1942,-24.3,113.8,WA
6084,6,WARROORA,1909,..,-23.4836,113.7926,WA
6085,6,YALOBIA,1894,1940,-24.2,114.1,WA
6086,6,MINGENEW WELL,1895,1899,-25.2333,115.6333,WA
6087,6,BRICKHOUSE WOOLSHED,1966,1977,-24.8167,113.8333,WA
6088,6,COORALYA O.S.,1929,1931,-24.4333,114.2667,WA
6089,6,CAPE FARQUHAR,1913,1920,-23.6333,113.6167,WA
6090,6,MEEBERRIE,1920,1994,-26.96,115.9733,WA
6091,6,MEARABUNDIE,1906,1910,-25.9667,115.9833,WA
6092,6,BILLABONG ASA,1969,..,-26.8156,114.6133,WA
6093,6,MINILYA BRIDGE,1972,1987,-23.81,114.0083,WA
6094,6,CAPE CUVIER,1971,1975,-24.2167,113.3833,WA
6095,6,QUOBBA,1952,..,-24.3967,113.4056,WA
6096,6,DOORAWARRAH O.S.,1929,1930,-25.0167,114.2833,WA
6097,6,USELESS LOOP,1982,..,-26.1203,113.3975,WA
6098,6,WEEDARRAH,1985,..,-25.028,115.862,WA
6099,6,MURCHISON,1987,..,-26.8956,115.9567,WA
6100,6,COOLCALALAYA,1985,2013,-27.525,115.0569,WA
6101,6,YALARDY,1988,2000,-26.0983,115.2444,WA
6102,6,STEEP POINT,1996,..,-26.1764,113.2149,WA
6103,6,MIDDALYA,1911,..,-23.9064,114.7681,WA
6104,6,MINNIE CREEK AIRSTRIP,2011,..,-24.0297,115.6894,WA
6105,6,SHARK BAY AIRPORT,2000,..,-25.8925,113.5772,WA
6106,6,MOOLOO DOWNS,1925,..,-25.037,115.994,WA
6107,6,FAR END PLANTATION,2005,2009,-24.8128,113.7925,WA
6108,6,CAPE CUVIER WHARF,2008,..,-24.2201,113.3975,WA
6109,6,GNARALOO - 3 MILE CAMP,2010,..,-23.8761,113.4972,WA
6110,6,RED BLUFF,2010,..,-24.0305,113.4509,WA
6111,6,WINDERIE AIRSTRIP,2011,..,-25.3097,115.145,WA
6112,6,LYONS RIVER AIRSTRIP,2011,..,-24.62,115.3347,WA
6113,6,BULLARDOO TBRG,2019,..,-27.8556,115.6716,WA
7000,07A,BARNONG,1902,2012,-28.6294,116.2814,WA
7001,07A,BEEBYN,1910,..,-26.9683,117.9031,WA
7002,07A,BELELE,1899,2006,-26.3611,118.0283,WA
7003,07A,BERINGARRA,1883,..,-26.0417,116.9528,WA
7004,07A,BIG BELL,1939,1954,-27.35,117.6667,WA
7005,07A,BOODANOO,1910,1949,-28.3,117.9,WA
7006,07A,BOOGARDIE,1910,..,-28.0411,117.6703,WA
7007,07A,BOOLARDY,1891,..,-26.9839,116.5353,WA
7008,7,BRYAH,1919,..,-25.5059,118.7983,WA
7009,07A,BULLARA,1911,1974,-27.4833,117.3,WA
7010,07A,BUNNAWARRA,1912,2013,-28.6058,116.5719,WA
7011,07A,BURNERBINMAH,1902,2016,-28.7839,117.3625,WA
7012,07A,BUTTAH,1918,1998,-26.1297,118.4853,WA
7013,07A,COGLA DOWNS NATTE,1912,1947,-27.25,118.3333,WA
7014,07A,COODARDY,1898,..,-27.2528,117.6522,WA
7015,07A,COODARDY YENTON,1927,1955,-27.3,117.25,WA
7016,07A,COODINGNOW,1905,1961,-29.3667,117.7,WA
7017,07A,CUE,1894,..,-27.425,117.8936,WA
7018,07A,CULLCULLI,1916,1988,-27.0392,118.365,WA
7019,7,BULLOO DOWNS,1917,..,-24.0019,119.5725,WA
7020,07A,ANNEAN,1887,2009,-26.8764,118.1731,WA
7021,07A,AUSTIN DOWNS,1907,2004,-27.3839,117.7453,WA
7022,07A,DAY DAWN,1896,1955,-27.4667,117.85,WA
7023,7,DOOLGUNNA,1929,..,-25.6864,119.2258,WA
7024,07A,EDAH,1937,..,-28.2731,117.1544,WA
7025,7,WANNA,1929,2002,-23.9214,116.5594,WA
7026,07A,FOUR CORNERS,1920,1973,-26.45,118.2,WA
7027,07A,GABYON,1888,..,-28.2494,116.34,WA
7028,7,WANNA,1946,..,-24.0469,116.2181,WA
7029,7,GLENBURGH,1908,1948,-25.4333,116.1167,WA
7030,07A,JUDAL STATION,1921,..,-26.1142,117.5047,WA
7031,07A,HILLVIEW,1917,..,-26.9033,118.8361,WA
7032,07A,ILLGIDDY,1925,1981,-27.6292,117.4867,WA
7033,07A,ILLGARARIE,1924,..,-24.3444,119.5808,WA
7034,07A,JINGEMARRA,1923,..,-27.7444,116.7439,WA
7035,07A,KALLI,1921,1995,-26.8936,117.1211,WA
7036,07A,KILLARA,1925,1998,-26.3475,118.9583,WA
7037,07A,KIRKALOCKA,1910,..,-28.5564,117.7803,WA
7038,07A,KOONMARRA,1927,..,-26.275,117.7842,WA
7039,07A,LAKE AUSTIN,1898,1963,-27.6,117.9,WA
7040,07A,LAKESIDE,1915,1981,-27.5958,117.75,WA
7041,7,LANDOR,1902,..,-25.1303,116.9047,WA
7042,07A,MADOONGA,1926,2016,-26.9367,117.5928,WA
7043,07A,MANFRED,1899,2018,-26.4458,116.5467,WA
7044,07A,MARLOO,1912,1948,-28.3,116.2,WA
7045,07A,MEEKATHARRA AIRPORT,1944,..,-26.6136,118.5372,WA
7046,07A,MEEKATHARRA POST OFFICE,1908,1988,-26.5933,118.4883,WA
7047,07A,MEELINE STATION,1923,..,-28.4467,118.2678,WA
7048,07A,MEKA STATION,1900,..,-27.4222,116.825,WA
7049,07A,MILEURA,1899,..,-26.3736,117.3339,WA
7050,7,MILGUN,1916,..,-25.0942,118.2983,WA
7051,07A,MINGAH,1919,1951,-24.95,118.7133,WA
7052,7,MOORARIE,1889,..,-25.9214,117.6,WA
7053,7,MOUNT AUGUSTUS,1901,..,-24.3086,116.9111,WA
7054,07A,MOUNT FARMER,1927,..,-27.8794,117.5506,WA
7055,7,MOUNT GOULD,1893,..,-25.8058,117.3905,WA
7056,7,MOUNT JAMES,1930,1980,-24.8567,116.895,WA
7057,07A,MOUNT MAGNET,1894,2014,-28.0617,117.8506,WA
7058,7,MOUNT PHILLIP,1902,..,-24.4,116.3078,WA
7059,7,MOUNT VERNON,1939,..,-24.2297,118.2408,WA
7060,07A,MOUNT WITTENOOM,1900,..,-27.4189,116.6897,WA
7061,7,MULGUL,1925,1986,-24.8333,118.4717,WA
7062,7,MUNDIWINDI,1915,1981,-23.7942,120.2442,WA
7063,07A,MURALGARRA,1904,2019,-28.5253,117.0344,WA
7064,07A,MURGOO,1889,..,-27.3636,116.4261,WA
7065,07A,NALBARRA,1906,..,-28.6519,117.6083,WA
7066,07A,NANNINE,1894,1955,-26.9,118.4,WA
7067,07A,NARNDEE,1921,..,-28.9467,118.1857,WA
7068,07A,NINGHAN STATION,1905,..,-29.425,117.2906,WA
7069,07A,NOONGAL,1913,2002,-28.1233,116.8294,WA
7070,7,PEAK HILL,1898,2000,-25.6381,118.7131,WA
7071,07A,PINDATHUNA,1905,..,-28.0531,116.6514,WA
7072,07A,PULLAGAROO,1921,..,-29.1886,117.9222,WA
7073,07A,RPF 126 MILE,1905,1955,-29.55,118.5,WA
7074,07A,DROMEDARY HILLS,1905,1936,-29.0167,118.45,WA
7075,07A,RPF 180 MILE,1910,1948,-26.85,118.7,WA
7076,07A,RPF 206 MILE,1905,1952,-27.95,118.6,WA
7077,07A,REEDY,1937,1949,-27.15,118.25,WA
7078,07A,SHERWOOD,1925,..,-26.5593,118.5423,WA
7079,7,SYLVANIA,1950,..,-23.5867,120.0517,WA
7080,7,THREE RIVERS,1907,..,-25.1256,119.1514,WA
7081,07A,THUNDELARRA,1906,..,-28.8928,117.1333,WA
7082,07A,TUCKANARRA,1900,..,-27.1192,118.0842,WA
7083,7,TUREE CREEK,1920,..,-23.6239,118.6561,WA
7084,7,ULLAWARRA,1895,2008,-23.48,116.1108,WA
7085,07A,WANARIE,1916,2002,-27.8336,117.8792,WA
7086,7,WANDARY,1902,1943,-25.7,118,WA
7087,07A,WINDSOR,1920,2008,-28.0097,118.5753,WA
7088,07A,WOOGALONG,1923,1987,-27.8058,116.5692,WA
7089,07A,WOOLEEN,1895,..,-27.0878,116.1606,WA
7090,07A,WYDGEE,1904,..,-28.8439,117.8311,WA
7091,07A,YALGOO,1896,..,-28.3386,116.6825,WA
7092,07A,YANDIL,1903,1984,-26.3608,119.8233,WA
7093,7,YARLERWEELOR,1924,..,-25.5786,117.9933,WA
7094,7,YINNETHARRA,1961,..,-24.651,116.165,WA
7095,07A,YOWERAGABBIE,1898,..,-28.2322,117.6556,WA
7096,07A,YUIN,1898,..,-27.9808,116.0347,WA
7097,07A,WONDINONG,1909,..,-27.8608,118.4183,WA
7098,07A,COONATHAGO O.S.,1947,1976,-28.8,117.6,WA
7099,07A,YARRABUBBA,1914,..,-27.1308,118.7803,WA
7100,7,MOUNT PADBURY,1902,..,-25.6933,118.0803,WA
7101,07A,MUNARRA,1921,..,-26.2822,118.6933,WA
7102,7,MURRAMUNDA,1915,1949,-23.5,120.5,WA
7103,7,NEDS CREEK,1947,..,-25.48,119.6492,WA
7104,7,PINGANDY,2000,..,-23.9958,117.5225,WA
7105,7,WOODLANDS,1955,..,-24.8083,118.1105,WA
7106,07A,WURARGA,1902,1983,-28.415,116.2833,WA
7107,07A,NOONDIE 2,1914,2000,-27.1178,117.1175,WA
7108,07A,WINDIMURRA,1962,1980,-28.325,118.545,WA
7109,07A,PAYNES FIND,1919,1974,-29.25,117.6667,WA
7110,07A,LENNONVILLE,1900,1973,-27.95,117.8667,WA
7111,7,COBRA STATION,1898,2005,-24.2008,116.475,WA
7112,07A,BUNGALOW,1906,1914,-26.0667,118.6667,WA
7113,7,ERRIVILLA,1893,1903,-25.3333,117.25,WA
7114,07A,WEARAGAMINDA,1906,1930,-28.4833,116.55,WA
7115,07A,WOOLARA,1915,1930,-28,118,WA
7116,07A,RPF 375,1910,1931,-26.4,119.8,WA
7117,07A,YARRA YARRA,1897,1909,-26.1667,116.25,WA
7118,07A,ABBOTTS,1898,1913,-26.4,118.4,WA
7119,7,ASHBURTON DOWNS,1920,..,-23.3856,117.0322,WA
7120,07A,BADGA,1909,1925,-28.6,116.8,WA
7121,7,BALD HILL,1935,1945,-24.7,119.75,WA
7122,07A,BUNGAR,1925,1939,-29.45,118.45,WA
7123,07A,COGLA DOWNS,1936,2002,-27.4375,118.9292,WA
7124,7,DALGETY DOWNS,1908,..,-25.2806,116.2083,WA
7125,07A,FIELDS FIND,1898,1935,-29,117.3,WA
7126,07A,GULLEWA POST OFFICE,1897,1920,-28.7,116.3,WA
7127,07A,GULLEWA HOUSE,1905,1924,-28.6,116.3,WA
7128,07A,GUM CREEK,1903,1918,-26.9,119.25,WA
7129,07A,MELANGATA,1910,..,-27.8036,116.8857,WA
7130,07A,MILLY MILLY,1899,..,-26.0747,116.6942,WA
7131,07A,MINDOOLAH,1907,1924,-26.95,117.5,WA
7132,7,MOUNT CLERE,1921,..,-25.0964,117.5922,WA
7133,7,MOUNT EDGERTON,1914,1921,-24.95,117.75,WA
7134,07A,MURCHISON DOWNS,1914,..,-26.795,118.9842,WA
7135,07A,MURRUM STATION,1900,..,-28.2747,117.3919,WA
7136,07A,LAKE VIEW DOWNS,1915,1929,-27.2,118,WA
7137,07A,NOOKAWARRA,1885,2010,-26.3028,116.8789,WA
7138,07A,NICHOLSON DOWNS,1914,1921,-27.1,117.1,WA
7139,07A,PAYNES FIND,1919,..,-29.2708,117.6836,WA
7140,07A,RPF TWO 64 MILE,1910,1935,-27.65,117.6,WA
7141,07A,ROTHESAY,1898,1906,-29.3,116.9,WA
7142,7,CASHMANS,2004,2010,-25.9697,118.6233,WA
7143,07A,WAGGA WAGGA,1903,1926,-28.5,116.5,WA
7144,07A,WARRIDAH,1918,1928,-29,117,WA
7145,07A,WARRIEDAR,1917,1933,-29.1,117,WA
7146,07A,WOGARNO,1911,..,-28.3831,117.6817,WA
7147,07A,YARRAQUIN,1916,1944,-27.55,118.0167,WA
7148,07A,YEDDERADDA,1907,1913,-26.25,116.6,WA
7149,07A,MEEKATHARRA,1964,..,-26.5942,118.4883,WA
7150,07A,MURRALEE,1965,1981,-27.6467,117.8592,WA
7151,7,NEWMAN,1965,2003,-23.3683,119.7314,WA
7152,7,KUMARINA,1966,..,-24.75,119.6056,WA
7153,7,PRAIRIE DOWNS,1968,..,-23.5531,119.1478,WA
7154,07A,WYNYANGOO,1912,..,-27.9369,118.1889,WA
7155,07A,KARALUNDI,1968,1979,-26.1317,118.6833,WA
7156,07A,TARDIE STATION,1968,..,-27.9578,116.3383,WA
7157,07A,DALGARANGA,1913,2015,-27.7744,117.0156,WA
7158,07A,INGLEWOOD,1968,1972,-27.6167,118.9333,WA
7159,07A,YARRAQUIN,1967,..,-27.5481,118.2182,WA
7160,07A,PAROO,1968,..,-26.2628,119.7639,WA
7161,7,ERRABIDDY,1969,..,-25.4628,117.1364,WA
7162,7,MOUNT SEABROOK,1926,..,-25.5986,117.7325,WA
7163,7,OLD MOUNT PADBURY,1969,1976,-25.6833,118.1,WA
7164,7,EDMUND,1907,..,-23.7633,116.1206,WA
7165,7,MINGAH SPRINGS,1969,..,-24.9483,118.7147,WA
7166,07A,JOHARDO,1911,1916,-28.35,116.55,WA
7167,07A,RPF TWO 115 MILE,1911,1914,-28.15,116.6167,WA
7168,07A,OUDABUNNA,1921,2007,-29.0675,117.7572,WA
7169,7,RHODES RIDGE,1971,2011,-23.1017,119.3678,WA
7170,7,YIRRIGULLY,1909,1913,-23.2167,116.5,WA
7171,07A,RPF 40 MILE,1915,1920,-28.5167,116.6333,WA
7172,7,MINDEROO,1913,1931,-23.4,119.7833,WA
7173,07A,GNOWS NEST,1923,1927,-28.5833,116.8667,WA
7174,07A,GOLDEN GROVE,1907,1910,-28.7,116.9333,WA
7175,07A,GARDEN GULLY,1914,1917,-26.4667,118.4667,WA
7176,7,NEWMAN AERO,1971,..,-23.4167,119.7992,WA
7177,7,MININER,1964,..,-23.6042,117.6892,WA
7178,7,PARABURDOO,1971,1997,-23.2028,117.6692,WA
7179,7,TANGADEE,1960,..,-24.4114,118.9408,WA
7180,7,MARYMIA,1972,..,-25.0386,120.0064,WA
7181,7,WEELARRANA,1972,..,-22.9789,120.01,WA
7182,7,MOUNT PUCKFORD,1973,1974,-25.1333,116.4833,WA
7183,7,SPRING CAMP,1973,1974,-24.9,116.55,WA
7184,07A,MOUNT MAGNET AERO,1973,1984,-28.1183,117.83,WA
7185,7,PARABURDOO AERO,1974,..,-23.1726,117.7493,WA
7186,7,ERONG,1969,2003,-25.565,116.6653,WA
7187,07A,MOOLA EAST,1974,1975,-28.2,118.0333,WA
7188,07A,MILGOO PEAK,1912,1912,-28.85,118.1333,WA
7189,07A,DIAMOND WELL,1974,1981,-26.19,119.5317,WA
7190,07A,MARANALGO,1974,..,-29.3892,117.8297,WA
7191,7,CAPRICORN ROADHOUSE,1975,2008,-23.4531,119.7994,WA
7192,07A,NALLAN,1975,..,-27.3158,117.9719,WA
7193,07A,GLEN STATION,1982,..,-27.0497,117.65,WA
7194,07A,YOUNO DOWNS,1983,..,-27.0722,119.2522,WA
7195,07A,BYRO,1898,..,-26.0794,116.1539,WA
7196,7,YUNDA STATION,1983,2002,-25.7361,116.9181,WA
7197,07A,CHALLA,1896,..,-28.2813,118.3106,WA
7198,07A,EAROO,1929,1940,-29.5,118.5,WA
7199,7,PLUTONIC (PLANT SITE),1991,2015,-25.3106,119.4481,WA
7200,07A,REEDY,1988,1999,-27.1242,118.2714,WA
7201,7,WALDBURG,1989,2000,-24.7428,117.3583,WA
7202,07A,GABANINTHA,1899,1994,-26.9183,118.6406,WA
7203,07A,PINDABUNNA,1993,2001,-29.3353,118.1022,WA
7204,07A,MEEKATHARRA MILOS AWS COMPARISON,1998,2001,-26.6131,118.5367,WA
7205,7,MOUNT AUGUSTUS RESORT,2000,2003,-24.3075,116.9094,WA
7206,7,BURRINGURRAH,2012,2018,-24.6522,116.9281,WA
7207,7,LANDOR AIRSTRIP,2011,..,-25.1283,116.9369,WA
7208,7,MOUNT AUGUSTUS AIRSTRIP,2011,..,-24.3075,116.9094,WA
7209,7,COBRA AIRSTRIP,2011,..,-24.1994,116.4814,WA
7210,7,BURRINGURRAH AIRSTRIP,2011,..,-24.6347,116.9472,WA
7211,7,DALGETY DOWNS AIRSTRIP,2011,..,-25.2694,116.2211,WA
7212,7,GINGINJIBBY,2017,..,-24.6141,117.653,WA
7300,7,TEN SIXTY SIX,1998,..,-24.1847,119.7175,WA
7500,07A,INNOUENDY,2004,..,-25.6939,116.5381,WA
7501,7A,NARLOO,2019,..,-27.8764,116.2616,WA
7502,7A,GREENOUGH RVR TBRG @ YUIN,2019,..,-27.9791,116.0348,WA
7600,07A,MOUNT MAGNET AERO,1995,..,-28.1156,117.8425,WA
8000,8,AJANA,1917,..,-27.9607,114.6336,WA
8001,8,BALLA,1926,2002,-28.0603,114.9461,WA
8002,8,BALLIDU,1910,..,-30.5967,116.7714,WA
8003,8,BALLIDU EAST,1930,1984,-30.5922,116.9194,WA
8004,8,BALLINE,1930,..,-28.0058,114.2206,WA
8005,8,BARBERTON,1911,..,-30.7294,116.02,WA
8006,8,BELLARANGA,1932,1969,-29.3333,115.5,WA
8007,8,PINDAWA,1958,..,-28.8956,115.8106,WA
8008,8,BERKSHIRE VALLEY,1907,..,-30.5831,116.135,WA
8009,8,BINDI BINDI EAST,1929,..,-30.6286,116.3861,WA
8010,8,BINNU,1929,..,-28.0422,114.6737,WA
8011,8,BLUFF POINT,1942,1979,-28.755,114.6133,WA
8012,8,BOWES,1931,1992,-28.38,114.6706,WA
8013,8,BOWGADA,1904,..,-29.3303,116.1433,WA
8014,8,DALWALLINU NORTH,1930,..,-30.2192,116.7783,WA
8015,8,BUNJIL,1940,1979,-29.575,116.4967,WA
8016,8,GLENFERRIE,1913,..,-30.445,117.0406,WA
8017,8,BUNTINE,1915,..,-29.9869,116.5711,WA
8018,8,BUNTINE EAST,1929,2010,-29.9331,116.7697,WA
8019,8,BUNYA BUNYA,1922,1986,-28.4375,115.1783,WA
8020,8,SHELLEYVALE,1951,2003,-28.9822,116.1683,WA
8021,8,SUNNYDALE,1956,..,-30.0425,116.6981,WA
8022,8,BALGERBINE,1959,..,-30.2911,116.3306,WA
8023,8,CANNA 1,1924,1973,-28.9,115.85,WA
8024,8,CANNA 2,1940,1960,-28.9,115.9,WA
8025,8,CARNAMAH,1887,..,-29.6886,115.8872,WA
8026,8,CARON,1915,1972,-29.5833,116.3167,WA
8027,8,PINDAR CHALLYMENDA,1929,1968,-28.5167,115.8,WA
8028,8,NABAWA,1905,..,-28.5008,114.7897,WA
8029,8,TIBRADDEN,1900,1970,-28.7517,114.9017,WA
8030,8,CHAPMAN EAST,1915,1947,-28.6,114.8,WA
8031,8,CLARE HILL,1912,1953,-28.4,114.8,WA
8032,8,BALMAHA,1930,1985,-29.0975,116.15,WA
8033,8,CLONTARF FARM,1929,2010,-28.7031,115.8172,WA
8034,8,COOARRA,1912,1959,-30.3,116.8,WA
8035,8,COOLANGATTA (1),1934,1946,-28.9,115.5,WA
8036,8,COOMBERDALE,1911,1997,-30.4644,116.0372,WA
8037,8,COOROW,1912,..,-29.8814,116.0229,WA
8038,8,MOORA WEST,1999,2015,-30.6392,115.9883,WA
8039,8,DALWALLINU COMPARISON,1912,2012,-30.2772,116.6619,WA
8040,8,DAMBORING,1936,1947,-30.2167,116.7,WA
8041,8,DARTMOOR,1927,2001,-27.9775,115.2103,WA
8042,8,YAMMA,1936,1987,-28.09,115.145,WA
8043,8,DINGLEY DELL,1912,1961,-29,116,WA
8044,8,DONGARA,1884,..,-29.2528,114.9306,WA
8045,8,DURAWAH,1909,1961,-28.55,114.9,WA
8046,8,DUNOLLY,1906,..,-30.9133,116.8092,WA
8047,8,FAIRFIELD,1919,..,-29.4711,115.8525,WA
8048,8,KARINGA,1912,1966,-29.3,116.2,WA
8049,8,GEORGINA,1933,1951,-28.8833,114.75,WA
8050,8,GERALDTON TOWN,1877,..,-28.7769,114.605,WA
8051,8,GERALDTON AIRPORT COMPARISON,1941,2014,-28.7953,114.6975,WA
8052,8,GLENEVA,1919,..,-28.17,114.7614,WA
8053,8,GLENMORE,1912,1948,-30.75,116.7,WA
8054,8,GLENVAR,1937,..,-30.7989,116.8936,WA
8055,8,GOWRIE,1912,1948,-30.3,116.8,WA
8056,8,DOUTHA SPRINGS,1928,1957,-29,115.95,WA
8057,8,GREEN GROVE,1951,..,-29.5486,115.0689,WA
8058,8,GREENOUGH,1882,1971,-29,114.8,WA
8059,8,HILLRIVER FARM,1913,1967,-28.7,114.7,WA
8060,8,SOUTH HOLMWOOD,1921,..,-29.0364,115.5536,WA
8061,8,HYDE PARK,1911,..,-30.2842,116.6328,WA
8062,8,ILLANA,1921,1948,-28.8,115.3,WA
8063,8,INDARRA,1916,1949,-28.55,115.3,WA
8064,8,INDARRIE,1923,..,-30.6719,116.3079,WA
8065,8,ISSEKA,1915,..,-28.4292,114.6542,WA
8066,8,KOKARDINE,1907,..,-30.7008,117.0608,WA
8067,8,KOOBABBIE,1911,..,-29.9414,116.2003,WA
8068,8,KOOLANOOKA EAST,1938,1975,-29.3,116.05,WA
8069,8,KOOLANOOKA DAM,1915,1945,-29.3,116.1,WA
8070,8,LAKE HINDS,1924,2011,-30.7819,116.5058,WA
8071,8,LAKE NINAN,1909,1951,-30.95,116.65,WA
8072,8,LATHAM,1934,..,-29.7582,116.4446,WA
8073,8,LATHAM EAST,1915,1986,-29.815,116.585,WA
8074,8,LINTONS STATION,1912,1949,-29.2,115.9833,WA
8075,8,LYNTON,1914,..,-28.2103,114.305,WA
8076,8,CARINYA,1956,1968,-29.3833,116.1167,WA
8077,8,HIGHFIELDS,1956,..,-29.6006,115.9392,WA
8078,8,MALLEE VALE,1935,..,-29.2419,115.7794,WA
8079,8,MANARRA,1906,..,-29.0711,115.6261,WA
8080,8,MAYA,1912,2009,-29.8658,116.525,WA
8081,8,MELLENBYE,1903,..,-28.8883,116.1947,WA
8082,8,MELROSE,1912,1953,-30.4,116.9,WA
8083,8,MENDEL,1928,1946,-28.8,115.5,WA
8084,8,MANAVI,1908,..,-30.2608,116.21,WA
8085,8,MILING,1924,..,-30.4921,116.3625,WA
8086,8,STRAWBERRY NORTH,1900,..,-29.1514,115.2428,WA
8087,8,MINDALLA,1913,..,-30.4228,116.4583,WA
8088,8,MINGENEW,1896,..,-29.1906,115.4414,WA
8089,8,MINGA MIA,1927,1950,-30.9833,116.3167,WA
8090,8,UPSAN DOWNS,1956,1964,-29.7,116.1333,WA
8091,8,MOORA,1897,2004,-30.6417,116.0072,WA
8092,8,MORAWA WEST,1912,1997,-29.1908,115.8814,WA
8093,8,MORAWA,1911,2005,-29.2103,116.0089,WA
8094,8,MOUNT ERIN,1899,1961,-28.6,114.8,WA
8095,8,MULLEWA,1896,..,-28.5367,115.5142,WA
8096,8,MUMBY,1902,..,-28.1525,114.5689,WA
8097,8,NARALING,1910,1982,-28.4472,114.9447,WA
8098,8,NANGETTY,1903,1985,-29.0011,115.3986,WA
8099,8,NARRA TARRA,1899,2003,-28.6928,114.7319,WA
8100,8,NORTHAMPTON,1882,..,-28.3456,114.6367,WA
8101,8,NORTHERN GULLY,1915,1979,-28.7086,114.9072,WA
8102,8,KONDUT EAST,1918,1978,-30.675,116.9389,WA
8103,8,OAKABELLA,1896,1949,-28.5,114.6,WA
8104,8,OGILVIE,1910,..,-28.1544,114.6692,WA
8105,8,RPF 102,1910,1952,-30.3,116.95,WA
8106,8,PERANGERY,1910,..,-29.3687,116.4062,WA
8107,8,PERENJORI,1918,..,-29.4417,116.2875,WA
8108,8,PIAWANING,1940,2011,-30.8394,116.3858,WA
8109,8,PINDAR,1911,..,-28.4767,115.7897,WA
8110,8,PINE RIDGE,1922,1944,-28.55,115.4,WA
8111,8,PITHARA,1935,1985,-30.3883,116.6647,WA
8112,8,RPF 170,1910,1948,-27.85,114.1333,WA
8113,8,RIVERSIDE,1929,..,-27.8325,114.7364,WA
8114,8,ROSELM,1929,1954,-29.55,116.05,WA
8115,8,ROUND HILL,1904,2019,-30.565,116.2364,WA
8116,8,SANDSPRINGS,1900,..,-28.7894,114.9417,WA
8117,8,SHADY GROVE,1922,1981,-29.2844,115.19,WA
8118,8,SUNDERLAND,1923,2001,-28.3231,114.9453,WA
8119,8,TALLERING,1905,2005,-28.3772,115.8508,WA
8120,8,TENINDEWA,1909,1985,-28.6214,115.3644,WA
8121,8,THREE SPRINGS,1907,..,-29.5339,115.7628,WA
8122,8,TOOTRA,1911,1972,-30.6,116.4,WA
8123,8,TOP WELL,1934,1992,-28.3781,114.7619,WA
8124,8,TARDUN,1924,2002,-28.7928,115.7344,WA
8125,8,URELLA,1902,1983,-29.0517,115.4,WA
8126,8,MINARU,1932,..,-29.8501,116.2287,WA
8127,8,WADDY FOREST NORTH,1926,1949,-29.8,116.2,WA
8128,8,TENINDEWA BINDU,1915,..,-28.5536,115.2456,WA
8129,8,WANDIN FARM,1929,1950,-28.45,115.3,WA
8130,8,WATHEROO,1899,..,-30.2992,116.0589,WA
8131,8,QUEENS PARK,1962,1963,-28.7833,114.6167,WA
8132,8,WATHEROO MAGNETIC OBS.,1918,1959,-30.3167,115.8833,WA
8133,8,WATTLE GROVE,1936,1963,-29.9,116.2,WA
8134,8,WHITE PEAK,1905,1979,-28.6475,114.6239,WA
8135,8,WICKA,1912,1961,-28.7,114.9,WA
8136,8,WINCHESTER,1916,1964,-29.8,115.9,WA
8137,8,WONGAN HILLS,1907,..,-30.8917,116.7186,WA
8138,8,WONGAN HILLS RES.STATION,1937,..,-30.8408,116.7267,WA
8139,8,WUBIN,1922,..,-30.1069,116.6328,WA
8140,8,WYE WYE,1912,1978,-30.8,116.5,WA
8141,8,WILLIGULLI NORTH,1907,..,-28.3811,114.4531,WA
8142,8,YAMMA POOL,1940,1998,-29.1911,115.7867,WA
8143,8,YANDANOOKA,1903,..,-29.2872,115.6331,WA
8144,8,YARRAGADEE,1906,..,-29.0759,115.4089,WA
8145,8,YARRALLA,1924,1997,-29.7211,116.4947,WA
8146,8,YTINICHE,1913,..,-30.0706,116.2092,WA
8147,8,YUNA,1909,..,-28.325,114.9589,WA
8148,8,BOOKARA,1904,1951,-29,114.9,WA
8149,8,PELSART ISLAND,1888,1950,-28.9833,113.95,WA
8150,8,NEWINGTON,1912,..,-30.8722,116.7983,WA
8151,8,WALEBING,1884,..,-30.6646,116.1383,WA
8152,8,NOONDIMURRA,1946,1950,-28.4667,114.8333,WA
8153,8,NORWOOD,1910,1954,-29.8,116.7,WA
8154,8,MILMOCUNDIN,1948,1996,-28.8697,114.8931,WA
8155,8,WILROY,1913,1966,-28.65,115.6667,WA
8156,8,NUNEADING,1913,1927,-30.7,116.8,WA
8157,8,CANNA,1915,..,-28.8975,115.8627,WA
8158,8,ARROWSMITH,1933,1946,-29.55,115.0667,WA
8159,8,MAYSBORO,1951,..,-30.9904,116.3554,WA
8160,8,MERIDALE,1999,..,-30.5097,116.3728,WA
8161,8,OPAWA,1905,1945,-29.2,115.5,WA
8162,8,PINDEREE,1927,1950,-28.4,115.2,WA
8163,8,RAVENSWOOD,1935,1940,-29.3,116,WA
8164,8,WOOPENATTY,1909,1945,-29.35,115.6833,WA
8165,8,YERECOIN,1940,1950,-30.9,116.4,WA
8166,8,MURCHISON HOUSE,1899,1926,-27.7,114.2,WA
8167,8,STRATHAIRD,1957,1969,-29.45,115.4667,WA
8168,8,HOWATHARRA,1911,..,-28.5447,114.6241,WA
8169,8,LOCHADA,1910,1940,-29.2,116.55,WA
8170,8,BRAESIDE 1,1911,1950,-28.5,115.65,WA
8171,8,UDALE,1954,1964,-29.7833,115.35,WA
8172,8,WONGOONDY,1925,1964,-28.85,115.5,WA
8173,8,ELSMORNE FARM,1950,1963,-29.0333,115.75,WA
8174,8,NOONDINE,1999,2015,-30.5456,116.0778,WA
8175,8,TREVOSEE,1954,1955,-29.6833,115.7167,WA
8176,8,CANTABILLING SPRINGS,1955,1968,-30.3,115.25,WA
8177,8,LONGVIEW,1956,1976,-30.8667,116.1167,WA
8178,8,YONGARLOO,1946,..,-29.1858,115.7406,WA
8179,8,EAST KONDUT,1947,..,-30.6583,116.9344,WA
8180,8,GNOWELLAN,1957,1996,-30.65,117.1078,WA
8181,8,ENEABBA POST OFFICE OLD SITE,1961,1971,-29.8,115.35,WA
8182,8,BOOTENAL,1899,1907,-28.8667,114.7333,WA
8183,8,NEW MARACARRA,1885,1895,-28.7167,114.8167,WA
8184,8,AJANA 2,1910,1919,-28,114.8,WA
8185,8,ARRINO,1897,1942,-29.4,115.6,WA
8186,8,BADDERA,1926,1932,-28.25,114.7,WA
8187,8,BEALIBA DOWNS,1934,1944,-30,116.4,WA
8188,8,BEATININE,1914,1923,-28.3,114.8,WA
8189,8,BERKSHIRE VALLEY POST OFFICE 1,1897,1919,-30.6,116.2,WA
8190,8,BOOMGALA,1912,1919,-27.8,114.7,WA
8191,8,CADGY CADGY,1911,1928,-29.1,116.2,WA
8192,8,CANNINGWOOD,1909,1921,-30.15,116.3,WA
8193,8,COLDSTREAM,1912,1922,-28.4,115.3,WA
8194,8,COOMBERDALE 1,1908,1919,-30.5,116.1,WA
8195,8,DEEPDENE,1924,1942,-28.5,115.7,WA
8196,8,PEARSE,1888,1904,-29.25,114.9,WA
8197,8,DULA,1926,1936,-30.6,116.6,WA
8198,8,DULI,1910,1919,-30.6,116.9833,WA
8199,8,ENEGEE,1912,1926,-28.4,114.8,WA
8200,8,ERADU,1907,..,-28.6936,115.0408,WA
8201,8,EUROGOBBIE,1926,1932,-29.6,116.7,WA
8202,8,BINDI BINDI NORTH,1999,..,-30.6221,116.3795,WA
8203,8,ERADU GREENLANDS,1922,1928,-28.8,115.0167,WA
8204,8,GUNYIDI,1930,1947,-30.2,116.1,WA
8205,8,KILLARNEY,1914,1922,-30.1,116.8,WA
8206,8,KOCKATEA,1901,1927,-28.7,115.55,WA
8207,8,KOOJAN,1923,1932,-30.8,116,WA
8208,8,LEWISTON,1914,1931,-30.4,116.65,WA
8209,8,BEATTY SIDING,1910,1924,-28.6,115.6,WA
8210,8,MARALANA,1933,1940,-29,116.1,WA
8211,8,MARCHAGEE,1913,1919,-30.05,116.05,WA
8212,8,ALLENDALE,1912,1919,-29.4,116.8,WA
8213,8,MINGIN,1928,1941,-29.6,116.0167,WA
8214,8,MOUNT VIEW,1899,1929,-27.9,114.6,WA
8215,8,NARDY,1915,1989,-30.4853,116.2664,WA
8216,8,PIAWANING 1,1928,1935,-30.85,116.3,WA
8217,8,TERRARA,1931,1939,-28.8,116.0167,WA
8218,8,TURIPA,1906,1920,-29.9167,116.1,WA
8219,8,VALLEY FARM,1925,1936,-30.9,116.8,WA
8220,8,WARWICK FARM,1915,1939,-29.8,116.7,WA
8221,8,WIRILDA KOOGAN,1910,1943,-30.8,116.15,WA
8222,8,WOOLTANA,1910,1930,-29.2,115.9,WA
8223,8,NANSON,1963,1986,-28.5617,114.755,WA
8224,8,MIARRA VALE,1963,1969,-28.6,114.9167,WA
8225,8,ENEABBA,1964,2017,-29.8183,115.2722,WA
8226,8,BOORAMBEE,1964,1969,-29.5833,115.3,WA
8227,8,ERINDOON,1951,1961,-29.8667,115.15,WA
8228,8,GIMLET HILL,1966,1989,-30.5939,116.5378,WA
8229,8,NANEKINE,1966,1980,-29.015,115.6733,WA
8230,8,ELENA,1943,..,-30.3817,116.7217,WA
8231,8,OAKLANDS,1967,..,-29.4667,116.1325,WA
8232,8,CLYDE PARK,1913,1983,-30.3317,116.7133,WA
8233,8,FIVE GUMS,1945,..,-29.4847,116.0703,WA
8234,8,BYRON,1968,..,-28.5685,115.2799,WA
8235,8,DRUMMONDEARNOCH,1968,1992,-28.7036,115.8167,WA
8236,8,MUNJA PARK,1969,1972,-28.7833,115.05,WA
8237,8,TENINDEWA,2000,..,-28.6857,115.2806,WA
8238,8,HAKEA,1908,..,-30.0989,116.2339,WA
8239,8,CASUERINA,1932,1943,-28.35,115.5833,WA
8240,8,COOLANGATTA,1925,..,-28.91,115.5117,WA
8241,8,DEEP WELL,1948,1948,-29.5,116.5,WA
8242,8,WICHERA RESERVOIR,1936,1950,-28.7333,114.9667,WA
8243,8,NIBY NIBY,1912,1920,-30.6167,116.2,WA
8244,8,MARBARANA,1915,1917,-30.7,116.6667,WA
8245,8,FERNLEIGH,1914,1919,-28.3333,114.8667,WA
8246,8,RPF 125,1910,1913,-27.9667,114.8333,WA
8247,8,DEEPDALE,1938,1940,-28.8,114.6833,WA
8248,8,SUNDALARA,1970,1974,-29.5333,115.3667,WA
8249,8,PERENJORI AMBULANCE,1970,1975,-29.45,116.2667,WA
8250,8,DUDAWA,1936,1937,-29.3833,115.7167,WA
8251,8,KALBARRI,1970,..,-27.7119,114.165,WA
8252,8,VREDE,1937,1947,-29.7,116.4333,WA
8253,8,LAKE VIEW,1921,1924,-29.75,115.8833,WA
8254,8,KONDUT,1931,..,-30.7092,116.7744,WA
8255,8,ROCK HILLS,1929,1934,-30.3833,116.8833,WA
8256,8,SYLVANDALE,1936,1939,-29.4333,116.4833,WA
8257,8,GUTHA,1969,1990,-28.9931,115.945,WA
8258,8,WALKAWAY,1971,1992,-28.9417,114.8014,WA
8259,8,WEIRMONGER,1915,1921,-28.3333,115.1,WA
8260,8,YAMBINYA,1937,1939,-30.4333,116.3833,WA
8261,8,MINDARRA,1972,..,-29.0636,115.1753,WA
8262,8,MOUNT ADAMS,1985,1987,-29.3583,115.2617,WA
8263,8,MOORA LIGHTNING,1973,..,-30.6308,116.03,WA
8264,10,WANARRA,1973,..,-29.5147,116.8011,WA
8265,8,KALLADALE,1965,1981,-29.68,115.2683,WA
8266,8,URAWA,1973,2001,-28.3275,115.5631,WA
8267,8,NOKANENA,1974,1990,-28.3517,114.5778,WA
8268,8,BALLA NORTH,1957,2004,-27.97,114.9686,WA
8269,8,HIGH PLAINS,1975,2008,-28.2667,114.7144,WA
8270,8,MOORE POINT,1976,1982,-28.7833,114.5167,WA
8271,8,NINDETHANA FARM,1977,..,-28.8114,115.9675,WA
8272,8,BINNU WEST,1978,2000,-27.9972,114.3036,WA
8273,8,ARENA,1980,..,-29.3586,115.4503,WA
8274,8,NARALING,1982,..,-28.4194,114.8186,WA
8275,8,ANRO,1982,..,-30.3678,116.2653,WA
8276,8,IRWIN HOUSE,1982,..,-29.2236,115.1075,WA
8277,8,RUFUS DOWNS,1929,1968,-30.2833,116.65,WA
8278,9,WARRADARGE,1979,..,-30.0722,115.3136,WA
8279,8,YGOOLA,1963,2005,-30.6689,117.2103,WA
8280,8,EURARDY,1983,..,-27.5656,114.6731,WA
8281,8,COURTLEA,1983,..,-30.3322,116.6828,WA
8282,8,RAT ISLAND,1986,1987,-28.7161,113.7847,WA
8283,8,KARAWA,1986,..,-30.1449,116.3834,WA
8284,8,UNDANOOKA,1964,2003,-30.835,116.1581,WA
8285,8,MATARANKA,1987,..,-28.3181,114.7614,WA
8286,8,WUNDI,1972,..,-28.275,114.6761,WA
8287,8,WARRINE,1972,..,-28.6564,114.8558,WA
8288,8,GHURKA,1972,..,-28.2575,114.6033,WA
8289,8,TWIN HILLS,1972,..,-29.6708,115.3636,WA
8290,8,NORTH ISLAND,1990,..,-28.3009,113.5937,WA
8291,8,SOUTH MERIDALE,1990,1999,-30.5475,116.3981,WA
8292,8,TAWARRI WEST,1975,..,-28.5164,115.37,WA
8293,8,BUNDI FARM,1987,2000,-28.1128,115.0697,WA
8294,8,WANDANA,1960,..,-28.2094,115.285,WA
8295,8,STRAWBERRY,1994,..,-29.2094,115.2628,WA
8296,8,MORAWA AIRPORT,1997,..,-29.2039,116.0247,WA
8297,8,DALWALLINU,1997,..,-30.2761,116.6714,WA
8298,8,TIBRADDEN,2000,..,-28.7597,114.937,WA
8299,8,ARRADALE,2000,..,-29.1103,115.3173,WA
8300,8,TABLETOP,2000,..,-29.0692,115.0915,WA
8301,8,BARBERTON EAST,2011,..,-30.7547,116.1303,WA
8302,8,WONGAN HILLS NORTH,2011,..,-30.8506,116.7208,WA
8303,8,MORESBY,2003,2009,-28.7214,114.6481,WA
8304,8,MOASCAR,2000,..,-28.9571,114.9492,WA
8305,8,PORT DENISON,2000,..,-29.2778,114.9464,WA
8306,8,DARTMOOR SOUTH,2001,..,-28.0636,115.1903,WA
8307,8,COOLANGATTA ALERT,2001,..,-28.8916,115.4429,WA
8308,8,TARDUN HILL,2001,..,-28.7996,115.7616,WA
8309,8,BELLENDAINE,2001,..,-29.3049,115.6552,WA
8310,8,SOUTH HOLMWOOD ALERT,2000,..,-29.0291,115.5548,WA
8311,8,MALLEE FARM,2003,2003,-27.9364,115.2972,WA
8312,8,JAMINDA SPRINGS,2004,2006,-28.4928,114.7167,WA
8313,8,S BEND,2004,..,-28.9852,114.772,WA
8314,8,GERALDTON PORT AUTHORITY BEACON NO 2,2009,..,-28.7631,114.5647,WA
8315,8,GERALDTON AIRPORT,2011,..,-28.8047,114.6989,WA
8316,8,YALLALIE BASIN,2011,..,-30.3819,115.8464,WA
8317,8,ANRO TBRG,2015,..,-30.36,116.2896,WA
8318,8,MINDALLA TBRG,2015,..,-30.4215,116.4579,WA
8319,8,WATHEROO RADAR,2017,..,-30.36,116.2922,WA
8320,8,DAISY DOWNS,2019,..,-28.3803,115.4581,WA
8321,8,TALLERING TBRG,2019,..,-28.3777,115.8508,WA
9000,9,ARALUEN,1934,..,-32.1247,116.1025,WA
9001,9,ARMADALE,1901,..,-32.1303,116.0053,WA
9002,9,ALLAMBIE,1916,1995,-31.2497,115.7303,WA
9003,9,BELVOIR,1885,1968,-31.8,116,WA
9004,9,BINDOON KEANEY COLLEGE,1949,1982,-31.3414,116.2133,WA
9005,9,CAPITELA,1934,1956,-30.85,115.8667,WA
9006,9,CHELSEA,1930,..,-30.6256,115.7803,WA
9007,9,CHIDLOW,1891,..,-31.8622,116.2658,WA
9008,9,CHITTERING,1951,1968,-31.4833,116.0833,WA
9009,9,LOWER CHITTERING,1915,..,-31.5998,116.1124,WA
9010,9,CHURCHMAN BROOK,1910,2020,-32.1483,116.0761,WA
9011,9,COCKLESHELL GULLY,1950,1980,-30.1478,115.0992,WA
9012,9,MOUNT YOKINE RESERVOIR,1958,1983,-31.8814,115.8531,WA
9013,9,COWALLA,1908,1969,-31.05,115.5667,WA
9014,9,DANDARAGAN WEST,1951,..,-30.6969,115.5817,WA
9015,9,KARRAGULLEN NORTH,1962,..,-32.0887,116.1259,WA
9016,9,FORRESTDALE,1905,1947,-32.15,115.9,WA
9017,9,FREMANTLE,1852,1992,-32.055,115.75,WA
9018,9,GINGIN,1889,..,-31.3461,115.9031,WA
9019,9,GLENEAGLE,1938,1968,-32.2833,116.1833,WA
9020,9,GREENMOUNT,1928,1990,-31.9,116.0567,WA
9021,9,PERTH AIRPORT,1944,..,-31.9275,115.9764,WA
9022,9,GUILDFORD POST OFFICE,1877,1954,-31.8989,115.9719,WA
9023,9,JARRAHDALE,1882,..,-32.3342,116.0755,WA
9024,9,MARBLING,1943,..,-31.5608,116.0842,WA
9025,9,MIDLAND,1886,..,-31.8691,116.0167,WA
9026,9,MIMIGARRA,1951,..,-30.8533,115.4456,WA
9027,9,MOGUMBER,1916,1973,-31,116.0167,WA
9028,9,MOOLIABEENEE SIDING,1912,1970,-31.3,116.0167,WA
9029,9,MUCHEA TREE FARM,1911,..,-31.5825,115.9658,WA
9030,9,MUNDARING,1888,..,-31.8978,116.1581,WA
9031,9,MUNDARING WEIR,1900,..,-31.9564,116.1642,WA
9032,9,MUNGEDAR,1936,1982,-30.4711,115.6475,WA
9033,9,NEW NORCIA,1882,..,-30.9711,116.2178,WA
9034,9,PERTH REGIONAL OFFICE,1876,1992,-31.9556,115.8697,WA
9035,9,NEDLANDS UWA,1940,1974,-31.9861,115.8192,WA
9036,9,ROCKINGHAM POST OFFICE,1897,1995,-32.2842,115.755,WA
9037,9,BADGINGARRA RESEARCH STN,1962,..,-30.3381,115.5394,WA
9038,9,ROTTNEST ISLAND LIGHTHOUSE,1879,1995,-32.0089,115.5022,WA
9039,9,SERPENTINE,1905,..,-32.3536,116.005,WA
9040,9,WANNAMAL,1905,..,-31.1428,116.0539,WA
9041,9,WANNERIE,1913,1976,-31.1667,115.55,WA
9042,9,WESTVALE,1949,1985,-30.86,115.7594,WA
9043,9,LEEWANA PRK,1960,1976,-33.8667,115.9,WA
9044,9,WUNGONG DAM,1911,..,-32.1983,116.0622,WA
9045,9,YANCHEP,1934,2000,-31.5567,115.6728,WA
9046,9,YATHROO,1885,..,-30.7742,115.6975,WA
9047,9,YERE YERE,1931,1989,-30.6164,115.7194,WA
9048,9,GOSNELLS,1940,1949,-32.1,116,WA
9049,9,GOSNELLS 2,1950,1984,-32.0783,116.0017,WA
9050,9,CANNING RIVER WEIR,1898,1996,-32.1575,116.1264,WA
9051,9,GLEN FORREST,1950,1996,-31.9211,116.0908,WA
9052,9,THE CHESTNUTS,1907,1956,-32.4,116.0167,WA
9053,9,PEARCE RAAF,1937,..,-31.6669,116.0189,WA
9054,9,TAMBREY,1938,..,-30.6033,115.6428,WA
9055,9,DANDARAGAN,1897,1968,-30.6833,115.7,WA
9056,9,FLOREAT PARK,1962,2006,-31.9494,115.7928,WA
9057,9,HERNE HILL,1913,..,-31.8186,116.0378,WA
9058,9,KALAMUNDA,1908,1994,-31.9822,116.0594,WA
9059,9,WINDY RIDGE,1935,1950,-32,116,WA
9060,9,MAIDA VALE 2,1950,1959,-31.95,116,WA
9061,9,SWANBOURNE MILITARY POST OFFIC,1954,1974,-31.9667,115.75,WA
9062,9,GIDGEGANNUP 1,1948,1975,-31.7833,116.2167,WA
9063,9,BADGINGARRA,1956,2007,-30.3903,115.5039,WA
9064,9,KWINANA BP REFINERY,1955,2012,-32.2258,115.7611,WA
9065,9,CARABAN,1956,1973,-31.3383,115.5525,WA
9066,9,GIDGEGANNUP,1957,..,-31.7906,116.1976,WA
9067,9,UPPER SWAN RESEARCH STATION,1957,1998,-31.7564,116.0222,WA
9068,9,MELVILLE,1956,2001,-32.0447,115.8214,WA
9069,9,YEAL SWAMP EAST,1956,1980,-31.4558,115.8767,WA
9070,9,SPEARWOOD,1958,1990,-32.1517,115.8008,WA
9071,9,CLONTARF BOYS TOWN,1958,1964,-32.0167,115.8667,WA
9072,9,BUNDIDUP,1958,2002,-30.2842,115.5242,WA
9073,9,SERPENTINE PIPE HEAD,1959,1992,-32.3733,116.0581,WA
9074,9,KALBYAMBA,1900,1907,-32.0167,115.9333,WA
9075,9,BALAMARRA,1920,1929,-30.4,115.65,WA
9076,9,BINDOON SOUTH,1932,1938,-31.4,116.1,WA
9077,9,CANNING TIMBER MILLS,1896,1900,-32.0667,116.1,WA
9078,9,CATABY,1929,1939,-30.7,115.6,WA
9079,9,CLAREMONT,1888,1928,-31.9833,115.8,WA
9080,9,CORNERS BROOK,1921,1939,-32.2,116.1,WA
9081,9,DALE ROAD,1923,1935,-32.2,116.3,WA
9082,9,ARMADALE TRAVELLERS ARMS HOTEL,1923,1926,-32.3,116.15,WA
9083,9,FREMANTLE OVAL,1908,1927,-32.05,115.75,WA
9084,9,FREMANTLE NORTH,1913,1919,-32.05,115.75,WA
9085,9,GINGIN BROOK,1920,1925,-31.3,115.6,WA
9086,9,HENDERSON NAVAL BASE,1915,1922,-32.1,115.75,WA
9087,9,PERTH HIGHGATE HILL,1905,1923,-31.95,115.9,WA
9088,9,HILL RIVER,1907,1919,-30.3,115.4,WA
9089,9,JARRAHDALE MILL,1910,1916,-32.4,116.0167,WA
9090,9,KANGAROO GULLY,1908,1932,-32.1,116.1,WA
9091,9,INNER DOLPHIN PYLON,1999,..,-31.9889,115.8311,WA
9092,9,MANDOGALUP,1923,1936,-32.2,115.8,WA
9093,9,MAYFIELD,1910,1916,-31.2,115.7,WA
9094,9,MAYLANDS AIRPORT,1929,1944,-31.95,115.9,WA
9095,9,BAYSWATER,1921,1933,-31.9,115.9,WA
9096,9,MOUNT VICTORIA,1890,1938,-32.0333,116.05,WA
9097,9,PERTH GARDENS,1876,1930,-31.95,115.85,WA
9098,9,PERTH NORTH,1907,1934,-31.9333,115.8333,WA
9099,9,PERTH SOUTH,1904,1918,-31.9667,115.85,WA
9100,9,PERTH STIRLING STREET,1885,1892,-31.95,115.8667,WA
9101,9,RANGERS VALLEY,1921,1930,-31.2,116.1,WA
9102,9,SUBIACO,1898,1938,-31.9,115.8,WA
9103,9,SUNNY DELL,1918,1935,-31.9333,116.2,WA
9104,9,WANDU,1904,1918,-31.9,116.1,WA
9105,9,WANNEROO,1905,..,-31.7317,115.7931,WA
9106,9,GOSNELLS CITY,1961,..,-32.0481,115.9844,WA
9107,9,MOUNT LAWLEY GOLF CLUB,1963,1969,-31.9167,115.8667,WA
9108,9,SMITHS MILL,1888,1892,-31.9,116.2,WA
9109,9,STONEVILLE RESEARCH STN,1965,2001,-31.8531,116.1783,WA
9110,9,KEVALA,1964,1993,-30.0233,115.2375,WA
9111,9,KARNET,1963,..,-32.4389,116.0789,WA
9112,9,BINDOON,1952,..,-31.3928,116.0875,WA
9113,9,ROLEYSTONE,1964,..,-32.1133,116.0819,WA
9114,9,LANCELIN,1965,..,-31.016,115.3322,WA
9115,9,SERPENTINE MAIN DAM,1963,..,-32.4022,116.1039,WA
9116,9,MUNBINEA,1966,1980,-30.26,115.1947,WA
9117,9,WEXHAM,1964,1975,-31.9667,116,WA
9118,9,LEDGE POINT,1956,1980,-31.15,115.4833,WA
9119,9,GNANGARA,1950,1990,-31.7758,115.9433,WA
9120,9,WANNEROO CALM,1958,2001,-31.7514,115.8014,WA
9121,9,MOORE RIVER FORESTRY 6,1965,1980,-31.2358,115.5381,WA
9122,9,YANCHEP NORTH FORESTRY,1956,1980,-31.4,115.7,WA
9123,9,GINGIN FORESTRY 2,1956,1980,-31.3786,115.7861,WA
9124,9,GINGIN FORESTRY 3,1956,1980,-31.4531,115.8058,WA
9125,9,YANCHEP EAST FORESTRY 4,1956,1980,-31.5772,115.8164,WA
9126,9,WEST PERTH,1967,2010,-31.9508,115.8453,WA
9127,9,MOSMAN PARK,1968,..,-32.0203,115.7692,WA
9128,9,YANCHEP NORTH FORESTRY 7,1967,1979,-31.4,115.6333,WA
9129,9,SCARBOROUGH BEACH POST OFFICE,1964,1986,-31.8931,115.7617,WA
9130,9,TUYALI,1968,2019,-30.6408,115.5003,WA
9131,9,JURIEN BAY,1968,..,-30.3081,115.0311,WA
9132,9,GLENEAGLE PLUVIO,1962,1974,-32.2833,116.1833,WA
9133,9,LAKE LESCHENAULTIA,1969,2020,-31.8511,116.2539,WA
9134,9,LOWER CHITTERING 2,1968,1980,-31.5667,116.0958,WA
9135,9,WALLISTON,1965,1995,-31.9942,116.0692,WA
9136,9,CANNING PARK,1916,1924,-32.0167,116,WA
9137,9,CARDUP,1970,..,-32.2475,116.0172,WA
9138,9,BYFORD BRICKWORKS,1938,1940,-32.2167,116,WA
9139,9,ALBANY HIGHWAY 47.5,1927,1937,-32.45,116.3,WA
9140,9,KELMSCOTT FORESTRY,1967,1978,-32.1333,116.0167,WA
9141,9,MARDELLA,1936,1940,-32.2667,115.95,WA
9142,9,EAGLE HILL,1923,1927,-32.2833,116.2167,WA
9143,9,PARKERVILLE,1919,1925,-31.8667,116.1333,WA
9144,9,BARAMBA,1970,..,-31.0769,115.5083,WA
9145,9,BROWNS LAKE,1929,1935,-32.1667,115.8,WA
9146,9,WAIKIKI,1970,1979,-32.31,115.7292,WA
9147,9,MOOLIABEENEE,1970,..,-31.3292,116.0811,WA
9148,9,WESTFIELD,1968,1987,-32.1517,115.9542,WA
9149,9,SAFETY BAY,1999,2005,-32.3,115.7147,WA
9150,9,WOODMANS POINT,1967,1996,-32.1367,115.7667,WA
9151,9,SUBIACO TREATMENT PLANT,1967,..,-31.9556,115.7928,WA
9152,9,MAHOMET SPRINGS,1964,..,-30.5003,115.7119,WA
9153,9,LESLEY,1931,1935,-32.15,116.1667,WA
9154,9,NEWNESMORR,1933,1936,-32.05,116.1167,WA
9155,9,WUNGONG BROOK NO.5,1921,1924,-32.2667,116.1333,WA
9156,9,TUART HILL,1931,1933,-31.9,115.8333,WA
9157,9,MORAY,1929,1934,-30.9667,115.8,WA
9158,9,LINSLADE,1920,1924,-31.75,116.0333,WA
9159,9,PERTH WEST,1971,1973,-31.95,115.85,WA
9160,9,POINT PERON,1971,1974,-32.2667,115.7,WA
9161,9,BENTLEY (CURTIN),1971,1988,-32.0022,115.8861,WA
9162,9,UPPER CHITTERING,1971,1989,-31.4556,116.0978,WA
9163,9,WEST SWAN,1917,2004,-31.8511,115.9942,WA
9164,9,LONG POINT,1936,1962,-32.3667,115.7167,WA
9165,9,BERAKIN FOREST,1931,1936,-31.9,116.4,WA
9166,9,WHITBY FALLS,1930,2001,-32.2931,116.0136,WA
9167,9,MOGUMBER FARM,1918,1999,-31.0053,115.9369,WA
9168,9,KARRAGULLEN,1972,..,-32.1189,116.1203,WA
9169,9,CERVANTES,1972,..,-30.5006,115.0664,WA
9170,9,JANDAKOT UNIVERSITY STN,1972,1996,-32.1644,115.8306,WA
9171,9,BROWNS LAKE,1929,1935,-32.1667,115.8333,WA
9172,9,JANDAKOT AERO,1972,..,-32.1011,115.8794,WA
9173,9,STONEVILLE,1973,1994,-31.8758,116.1764,WA
9174,9,KALLAROO,1973,1974,-31.7833,115.7333,WA
9175,9,SUMMER VALLEY,1973,1985,-30.8872,116.0294,WA
9176,9,STRATHBOGIE,1973,1974,-30.5333,115.3333,WA
9177,9,SAN ANGELO,1973,..,-31.1216,115.4458,WA
9178,9,GINGIN AERO,1968,..,-31.4628,115.8642,WA
9179,9,ENEMINGA,1973,..,-30.7994,115.5467,WA
9180,9,CARMEL,1973,2008,-32.0186,116.0997,WA
9181,9,SWAN VIEW,1973,2014,-31.8817,116.0592,WA
9182,9,MAIDA VALE,1975,..,-31.9672,116.0231,WA
9183,9,TWO ROCKS,1975,2013,-31.4978,115.5914,WA
9184,9,CRAIGIE,1976,1988,-31.775,115.77,WA
9185,9,ST.MARYS PASTORAL,1967,1969,-31.85,115.9,WA
9186,9,BEENYUP,1979,2009,-31.7858,115.7772,WA
9187,9,MURDOCH,2001,2020,-32.0758,115.8469,WA
9188,9,WOODSOME,1929,1955,-31.75,116,WA
9189,9,COTTESLOE BEACH,1916,1926,-31.9833,115.75,WA
9190,9,KELMSCOTT,1907,1985,-32.13,116.005,WA
9191,9,CITY BEACH,1983,1998,-31.9286,115.7653,WA
9192,9,FREMANTLE,1983,..,-32.0533,115.7647,WA
9193,9,ROTTNEST ISLAND,1983,..,-32.0069,115.5022,WA
9194,9,MEDINA RESEARCH CENTRE,1983,2018,-32.2208,115.8075,WA
9195,9,MALMALLING,1914,1948,-31.95,116.3,WA
9196,9,INNAMINCKA,1912,1956,-31.5667,116.1,WA
9197,9,GARDEN ISLAND,1983,1999,-32.23,115.6844,WA
9198,9,KELMSCOTT 2,1982,1997,-32.1261,116.0358,WA
9199,9,LEEMAN,1983,..,-29.9486,114.9781,WA
9200,9,MUCHEA WILDFLOWER PARK,1984,1998,-31.5286,116,WA
9201,9,WABLING,1986,1989,-31.3908,115.6811,WA
9202,9,MOUNT HELENA,1986,..,-31.8344,116.2197,WA
9203,9,TUDOR PARK,1988,1996,-31.8986,116.3236,WA
9205,9,MUNYERRING SPRINGS,1975,1994,-31.4317,116.2642,WA
9206,9,PICKERING BROOK,1974,..,-32.0381,116.1264,WA
9207,9,PICKERING BROOK NORTH,1974,..,-32.0208,116.1167,WA
9208,9,TRANGIE,1970,1988,-32.4489,116.0242,WA
9209,9,SPRINGDALE,1970,2013,-32.4331,116.0289,WA
9210,9,LAKE NAMMEN,1971,..,-30.8928,115.5789,WA
9211,9,PINDARITA,1971,..,-30.2892,115.3203,WA
9212,9,SAWYERS VALLEY,1972,1996,-31.9031,116.2008,WA
9213,9,WONYIL,1972,1999,-31.9278,116.1861,WA
9214,9,OCEAN REEF,1985,..,-31.7594,115.7278,WA
9215,9,SWANBOURNE,1985,..,-31.9558,115.7619,WA
9216,9,VICTORIA DAM,1968,2020,-32.0394,116.0656,WA
9217,9,KINGSLEY,1990,1995,-31.8097,115.8183,WA
9218,9,GILLINGARRA,1991,1998,-30.9311,116.0417,WA
9219,9,LUPIN VALLEY,1980,..,-30.6919,115.8119,WA
9220,9,CABRAE,1991,2000,-31.4956,116.0547,WA
9221,9,CHITTERING HEIGHTS,1991,2012,-31.4367,116.0642,WA
9222,9,GLENROYD,1991,2005,-31.7422,116.2144,WA
9223,9,SORRENTO,1993,2017,-31.8367,115.7692,WA
9224,9,FREMANTLE PORT,1952,..,-32.0544,115.7414,WA
9225,9,PERTH METRO,1993,..,-31.9192,115.8728,WA
9226,9,GOORALONG ORCHARD,1972,1993,-32.2667,116.0833,WA
9227,9,PARKVILLE,1972,1993,-31.8833,116.15,WA
9228,9,LENNARDS BROOK,1972,1987,-31.3778,116.0481,WA
9229,9,HAMPTON DOWNS,1972,1987,-31.3556,115.97,WA
9230,9,MOUNT HELENA 2,1972,1993,-31.85,116.1833,WA
9231,9,WAKEDALE,1972,1993,-31.1833,115.85,WA
9232,9,KURRIE,1972,1993,-31.1833,115.8,WA
9233,9,PIESSE GULLY,1974,1993,-32,116.0833,WA
9234,9,CANTERBURY,1975,1987,-31,116.2067,WA
9235,9,MUCHEA,1975,1993,-31.5167,116.0333,WA
9236,9,BAILUP STUD,1975,1987,-31.7222,116.2747,WA
9237,9,CULLACABARDEE,1993,1995,-31.8153,115.8875,WA
9238,9,GUILDERTON,1993,1994,-31.3489,115.5028,WA
9239,9,BEDFORDALE,1993,2014,-32.1753,116.0542,WA
9240,9,BICKLEY,1969,..,-32.0072,116.1369,WA
9241,9,ROLEYSTONE WEST,1993,2012,-32.1308,116.0614,WA
9242,9,CLOON,1994,..,-32.3956,115.9744,WA
9243,9,WOODRIDGE ESTATE,1994,..,-31.335,115.5722,WA
9244,9,HERNE HILL,1995,2012,-31.8219,116.0367,WA
9245,9,JARRAHDALE MINESITE,1972,2000,-32.2917,116.1022,WA
9246,8,LEYTON,1993,..,-30.9442,116.4989,WA
9247,9,FREMANTLE FPA BUILDING,1986,1987,-32.0333,115.7333,WA
9248,9,MOONDAH BROOK,1997,..,-31.332,115.9513,WA
9249,9,MARIGINIUP,1997,2017,-31.6992,115.8628,WA
9250,9,PERTH AIRPORT COMPARISON,1997,2001,-31.9356,115.9639,WA
9251,9,COONAWARRA DOWNS,1997,2007,-30.1283,115.5011,WA
9252,9,NOBLE FALLS,2000,..,-31.7683,116.2475,WA
9253,9,HOPELANDS,2000,..,-32.3914,115.8489,WA
9254,9,ARMAMENT JETTY,2001,..,-32.1758,115.6808,WA
9255,9,COLPOYS POINT,2001,..,-32.2272,115.6994,WA
9256,9,GARDEN ISLAND HSF,2001,..,-32.2433,115.6839,WA
9257,9,FORRESTDALE,1985,..,-32.15,115.9486,WA
9258,9,ANKETELL,2002,..,-32.2156,115.8758,WA
9259,9,COORANG,2003,2004,-31.0811,115.8569,WA
9260,9,MOUNT SOLUS,2004,..,-32.4697,116.2143,WA
9261,9,NORTH BADGINGARRA (TOOMBULLUP),2004,2011,-30.2875,115.4656,WA
9262,9,GNANGARA PARK,2004,2004,-31.6439,115.8281,WA
9263,9,WHITEMAN PARK,2004,..,-31.8372,115.9502,WA
9264,9,TAMALA PARK (MINDARIE),2004,..,-31.7078,115.7244,WA
9265,9,HILLARYS BOAT HARBOUR NTC AWS,1991,..,-31.8256,115.7386,WA
9266,9,MOGUMBER WEST,2003,2012,-31.0697,115.9581,WA
9267,9,GIDGEGANNUP NORTH,2007,2020,-31.7008,116.1847,WA
9268,9,JULIMAR FOREST,2007,..,-31.4566,116.3701,WA
9269,9,BINDOON ARMY GATE,2011,..,-31.3397,116.26,WA
9270,9,MOOLIABEENEE TBRG,2011,..,-31.3297,116.0813,WA
9271,9,BUNGENDORE,2011,..,-32.1886,116.0564,WA
9272,,PERTH RADAR,2010,..,-32.3917,115.867,WA
9273,09A,AUSTRALIND,2010,..,-33.2722,115.7167,WA
9274,9,MINSTON PARK,2010,..,-31.2614,116.126,WA
9275,9,MUCHEA,2011,..,-31.5869,115.9694,WA
9276,9,NAMBUNG STATION,2004,..,-30.5744,115.2231,WA
9277,9,LAKE CHITTERING,2011,..,-31.4319,116.0856,WA
9278,09A,YOONGARILLUP TBRG,2011,..,-33.7394,115.47,WA
9279,9,CANTERBURY,2012,..,-31.0008,116.2314,WA
9280,9,LANCELIN (DEFENCE),2018,..,-30.8392,115.2283,WA
9281,9,MILLENDON (SWAN VALLEY),2017,..,-31.8112,116.0227,WA
9500,09A,ALBANY,1877,..,-35.0289,117.8808,WA
9501,09A,ARUNDEL,1912,..,-34.4736,117.48,WA
9502,09A,BOWELLING,1919,1987,-33.4167,116.4767,WA
9503,09A,BOYANUP,1897,2014,-33.4825,115.7286,WA
9504,09A,BOYUP BROOK,1913,..,-33.8325,116.3894,WA
9505,09A,BALINGUP,1924,..,-33.7864,115.9817,WA
9506,09A,BANGALUP,1920,..,-34.4678,116.9169,WA
9507,09A,BANNISTER,1885,..,-32.6836,116.5194,WA
9508,09A,BIDDELIA,1900,1971,-34.25,115.75,WA
9509,09A,BODDINGTON SHIRE,1915,..,-32.8094,116.4581,WA
9510,09A,BRIDGETOWN COMPARISON,1887,..,-33.9575,116.1375,WA
9511,09A,ELSFIELD,1910,1954,-32.7,115.95,WA
9512,09A,SPRINGFIELDS,1912,2006,-34.4011,115.9353,WA
9513,09A,BRUNSWICK JUNCTION,1909,..,-33.2136,115.85,WA
9514,09A,BUNBURY POST OFFICE,1877,1985,-33.3267,115.63,WA
9515,09A,BUSSELTON SHIRE,1877,..,-33.6611,115.3456,WA
9516,09A,CAPEL,1914,2003,-33.5506,115.5717,WA
9517,09A,CASTLEDENE,1919,1981,-33.7175,115.85,WA
9518,09A,CAPE LEEUWIN,1897,..,-34.3728,115.1358,WA
9519,09A,CAPE NATURALISTE,1903,..,-33.5372,115.0189,WA
9520,09A,CAPE RICHE,1897,..,-34.6086,118.7511,WA
9521,09A,CARMENDALE,1921,1990,-34.735,117.7217,WA
9522,09A,YALLINGUP,1905,1968,-33.6333,115,WA
9523,09A,ILLALANGI,1912,..,-34.9728,117.2669,WA
9524,09A,CORDINUP,1950,1988,-34.67,118.5317,WA
9525,09A,CULICUP ESTATE,1926,2002,-33.8742,116.6544,WA
9526,09A,NORTH DANDALUP,1921,1955,-32.5167,115.9667,WA
9527,09A,DARDANUP EAST,1935,..,-33.3969,115.7833,WA
9528,09A,DARRADUP,1919,1974,-34.0833,115.5833,WA
9529,09A,DEEP RIVER,1941,1975,-35,116.65,WA
9530,09A,DEESIDE,1900,..,-34.3771,116.4145,WA
9531,09A,DENMARK,1897,..,-34.9617,117.3567,WA
9532,09A,DENMARK AGRIC. SCHOOL,1947,..,-34.9528,117.3733,WA
9533,09A,DINNINUP,1905,1987,-33.8394,116.56,WA
9534,09A,DONNYBROOK,1900,..,-33.5719,115.8247,WA
9535,09A,CORONET HILL,1996,..,-33.8267,122.4922,WA
9536,09A,DORSET DOWNS,1917,1954,-34.2,116.9833,WA
9537,09A,QUINDALUP,1927,1977,-33.6,115.1,WA
9538,09A,DWELLINGUP,1934,..,-32.7103,116.0594,WA
9539,09A,BREAKSEA ISLAND,1890,1926,-35.0667,118.05,WA
9540,09A,MARGARET RIVER 1,1899,1948,-33.9833,115.0167,WA
9541,09A,ESPERANCE POST OFFICE,1883,1969,-33.85,121.8833,WA
9542,09A,ESPERANCE AERO,1950,..,-33.6825,121.8275,WA
9543,09A,FALNASH,1937,1974,-33.9333,116.3,WA
9544,09A,FANNY COVE,1899,1949,-33.8333,121.1667,WA
9545,09A,FERGUSON,1939,1999,-33.4356,115.8433,WA
9546,09A,FERNDALE,1902,1970,-33.8167,115.9333,WA
9547,09A,FOREST GROVE,1925,..,-34.0744,115.0808,WA
9548,09A,GLEN IVOR,1951,1968,-33.6167,116,WA
9549,09A,GLENORAN,1935,1951,-34.3,115.9833,WA
9550,09A,GLEN WARREN,1925,2003,-34.4189,116.2086,WA
9551,09A,GRASSMERE,1902,2019,-35.0151,117.7577,WA
9552,09A,GREENBUSHES,1893,..,-33.8564,116.055,WA
9553,09A,HAMEL,1910,1991,-32.8683,115.9139,WA
9554,09A,HARVEY POST OFFICE,1897,1991,-33.08,115.8917,WA
9555,09A,HAYNESDALE,1950,1950,-34.2833,117.0833,WA
9556,09A,ALDERVALE,1903,..,-33.9781,116.3336,WA
9557,09A,HOPETOUN,1901,..,-33.9327,120.0944,WA
9558,09A,IAWAKIA,1937,2006,-34.6922,117.2347,WA
9559,09A,KALGAN RIVER,1911,..,-34.9097,117.9942,WA
9560,09A,KARRIDALE,1894,1963,-34.2,115.1,WA
9561,09A,KENDENUP,1901,..,-34.4858,117.6289,WA
9562,09A,KENINUP,1911,1970,-33.9333,116.5667,WA
9563,09A,WATTLEGROVE,1912,1952,-34.8,117.0167,WA
9564,09A,KING RIVER,1903,2010,-34.9431,117.9242,WA
9565,09A,KOJANEERUP,1926,1998,-34.5319,118.2781,WA
9566,09A,KUDARDUP,1938,1959,-34.3,115.1,WA
9567,09A,EULIN HOUSE,1919,1953,-33.8,116.7,WA
9568,09A,LAKE MUIR,1898,1968,-34.5167,116.6167,WA
9569,09A,BUSSELTON,1997,2011,-33.655,115.3194,WA
9570,09A,EAST NANNUP,1997,1999,-34.0183,115.8339,WA
9571,09A,HILLCREST,1945,1981,-33.8592,116.19,WA
9572,09A,HALLS HEAD,1889,..,-32.5385,115.7002,WA
9573,09A,MANJIMUP,1915,..,-34.2508,116.145,WA
9574,09A,MARGARET RIVER,1928,..,-33.9583,115.0636,WA
9575,09A,MARRADONG,1897,..,-32.8556,116.45,WA
9576,09A,MARYLANDS,1948,1952,-33.8,115.3,WA
9577,09A,STRATHALBYN,1926,1991,-34.6161,116.0239,WA
9578,09A,MERLOO FARM,1927,1948,-34.9,117.7,WA
9579,09A,OAKE MARSH FARM,1951,..,-33.7633,122.0675,WA
9580,09A,MORNINGTON MILLS,1911,1966,-33.15,115.9333,WA
9581,09A,MOUNT BARKER,1886,..,-34.625,117.6361,WA
9582,09A,MANYPEAKS,1930,1993,-34.8389,118.1703,WA
9583,09A,MYLOR,1924,1987,-33.86,115.855,WA
9584,09A,MYRUP,1901,..,-33.7422,121.995,WA
9585,09A,NANNUP,1900,..,-33.9797,115.7656,WA
9586,09A,NANNUP EAST,1937,1949,-34.0167,115.8,WA
9587,09A,NEWBICUP,1918,..,-33.9967,116.4253,WA
9588,09A,NOGGERUP,1915,1974,-33.5833,116.1833,WA
9589,09A,NORNALUP,1913,..,-34.9919,116.8206,WA
9590,09A,NORTHCLIFFE,1925,..,-34.6336,116.1236,WA
9591,09A,PARDELUP,1899,..,-34.6279,117.3851,WA
9592,09A,PEMBERTON,1941,..,-34.4478,116.0433,WA
9593,09A,PEMBERTON POST OFFICE,1935,1969,-34.45,116.0167,WA
9594,09A,PEPPERMINT GROVE,1904,..,-34.435,119.3628,WA
9595,09A,PERILLUP,1915,2007,-34.5694,117.2497,WA
9596,09A,PINJARRA,1877,2012,-32.6272,115.8747,WA
9597,09A,QUINDALUP,1894,1967,-33.6833,115.15,WA
9598,09A,RADYR PARK,1902,1972,-33.05,115.9,WA
9599,09A,BARRETT MEADOWS,1914,..,-34.98,117.6322,WA
9600,09A,ROSA BROOK,1925,..,-33.9628,115.1828,WA
9601,09A,ROELANDS VILLAGE,1909,2008,-33.3208,115.8825,WA
9602,09A,SHANNON RIVER,1949,1970,-34.6,116.4167,WA
9603,09A,BUSSELTON AERO,1997,..,-33.6818,115.4026,WA
9604,09A,TANDARA,1950,1974,-34.95,118.15,WA
9605,09A,TENTERDEN,1915,..,-34.367,117.553,WA
9606,09A,DRUMMONDS,1912,1981,-34.3417,115.9892,WA
9607,09A,WHITE GUMS,1919,..,-34.5472,117.9363,WA
9608,09A,TOTTENUP,1929,1969,-33.9833,116.5333,WA
9609,09A,YOUNGS SIDING,1905,..,-35.0183,117.5289,WA
9610,09A,WAGERUP,1934,1944,-33.1,115.9,WA
9611,09A,WALPOLE,1951,..,-34.9761,116.7328,WA
9612,09A,WALPOLE NORTH OLD,1947,1992,-34.8511,116.7092,WA
9613,09A,WARNER GLEN,1942,..,-34.1436,115.2261,WA
9614,09A,WAROONA,1935,..,-32.8564,115.8925,WA
9615,09A,WARRIUP,1919,..,-34.715,118.4692,WA
9616,09A,WESTBOURNE,1903,..,-34.0911,116.6628,WA
9617,09A,BRIDGETOWN,1997,..,-33.9486,116.1311,WA
9618,09A,WILGA STATE SCHOOL,1921,1945,-33.7,116.2,WA
9619,09A,WILGARRUP,1900,..,-34.1519,116.2042,WA
9620,09A,WILLOW SPRINGS,1948,1960,-34.3,115.95,WA
9621,09A,WOODBURN,1893,..,-34.6997,117.9556,WA
9622,09A,WOODPERRY,1913,1995,-33.6244,115.9339,WA
9623,09A,WOOGENELLUP,1903,2020,-34.5303,117.8247,WA
9624,09A,YARLOOP,1947,..,-32.9592,115.9008,WA
9625,09A,YELLANUP,1928,..,-34.7275,117.9222,WA
9626,09A,PLEASANT VALLEY,1948,..,-33.7106,121.5619,WA
9627,09A,YORNUP,1946,2012,-34.0772,116.2033,WA
9628,09A,COLLIE,1899,..,-33.3603,116.1473,WA
9629,09A,MARRIWOOD,1957,..,-33.4464,115.7308,WA
9630,09A,WONNENUP,1927,2003,-34.2111,117.1025,WA
9631,09A,ESPERANCE DOWNS RESEARCH STN,1951,..,-33.6031,121.7828,WA
9632,09A,FERNBROOK,1915,1964,-33.2667,115.9833,WA
9633,09A,TAMAR,1947,..,-34.8643,118.1121,WA
9634,09A,PARKFIELD,1913,2012,-33.2058,115.7147,WA
9635,09A,FRANKLAND,1923,..,-34.3633,117.0836,WA
9636,09A,COWARAMUP,1926,..,-33.8358,115.0747,WA
9637,09A,DENMARK RES.STN.,1951,1984,-34.9511,117.37,WA
9638,09A,BOWS FARM,1915,1950,-33.7,121.7,WA
9639,09A,BEELA,1948,1949,-33.2333,115.9167,WA
9640,09A,COOEEARUP,1903,1943,-33.95,116.05,WA
9641,09A,FRANKLAND (THREE PINES),1937,1940,-34.3,117.1,WA
9642,09A,WOKALUP,1951,..,-33.1328,115.8794,WA
9643,09A,ROSAMEL,1919,1963,-33.2,115.7,WA
9644,09A,MEELUP,1998,2002,-33.5903,115.0678,WA
9645,09A,STOKES INLET,1997,..,-33.7981,121.1503,WA
9646,09A,GLENBOURNE,1949,1963,-33.9,115,WA
9647,09A,WEREROA,1955,..,-34.9506,117.2769,WA
9648,09A,THIRLMERE,1954,..,-33.5064,115.6403,WA
9649,09A,KEMERTON,1994,2002,-33.1792,115.7494,WA
9650,09A,BINNINGUP,1998,2002,-33.1517,115.6917,WA
9651,09A,LOWDEN,1995,2002,-33.5364,115.9472,WA
9652,09A,YOUNG RIVER,1954,2008,-33.7767,121.1133,WA
9653,09A,HEARTLEA,1955,1967,-34.1,116.5,WA
9654,09A,BREMER BAY,1885,..,-34.3989,119.378,WA
9655,09A,COOLINUP,1955,1988,-33.7867,122.1683,WA
9656,09A,TONEBRIDGE,1956,1985,-34.1867,116.7133,WA
9657,09A,ROELANDS,1942,..,-33.2947,115.7706,WA
9658,09A,COURTENEY,1956,1970,-34.1833,115.2,WA
9659,09A,HUNTLY,1939,1959,-32.6,116.05,WA
9660,09A,MCLEODS CREEK,1956,2003,-34.1606,115.1414,WA
9661,09A,ROCKY GULLY TOWN,1954,..,-34.5097,117.0117,WA
9662,09A,CAPE LE GRANDE,1957,1986,-34,122.1167,WA
9663,09A,BEDFORD HARBOUR RPF1,1957,1979,-33.8167,120.5167,WA
9664,09A,LADYVALE,1957,1974,-34.0667,116.1,WA
9665,09A,RANCHO X,1959,1992,-33.8381,122.41,WA
9666,09A,MCALINDEN,1945,..,-33.5964,116.3347,WA
9667,09A,LOCH ELLEN,1958,1960,-34.45,117.55,WA
9668,09A,KURANDA,1956,..,-33.6739,116.6475,WA
9669,09A,BALINGUP - LILYDALE,1956,1995,-33.7108,115.8017,WA
9670,09A,HENDRA,1956,1981,-34.245,115.1433,WA
9671,09A,WILGA,1956,2020,-33.6878,116.2147,WA
9672,09A,BRAMLEY RES.STN.,1955,1984,-33.8933,115.085,WA
9673,09A,BOKERUP,1959,..,-34.2511,116.8767,WA
9674,09A,LANGLEY PARK,1960,1993,-33.7953,122.1578,WA
9675,09A,MAIKURRA,1960,1980,-33.8117,122.445,WA
9676,09A,WINNEJUP,1960,1971,-33.9833,116.3333,WA
9677,09A,PINEVALE,1957,1972,-33.8167,121.9,WA
9678,09A,REDMOND,1913,..,-34.8788,117.6726,WA
9679,09A,LAKE PRESTON LODGE 2 COMP.,1960,2012,-32.9939,115.7272,WA
9680,09A,PORONGORUP,1914,1982,-34.6733,117.9,WA
9681,09A,AUGUSTA,1882,1902,-34.3167,115.15,WA
9682,09A,BLACKWATTLE,1900,1919,-34.3667,117.05,WA
9683,09A,POINT KING,1896,1909,-35.0333,117.9167,WA
9684,09A,SOUTHAMPTON,1911,1920,-33.8833,115.9833,WA
9685,09A,THE WARREN,1899,1905,-34.5167,115.9833,WA
9686,09A,BLYTHWOOD,1905,1942,-32.7,115.9,WA
9687,09A,BRUNSWICK STATE FARM,1915,1919,-33.3,115.8,WA
9688,09A,LEYLAND,1936,1944,-33.3,115.6,WA
9689,09A,TAKENUP CREEK,1998,2001,-34.7597,117.9597,WA
9690,09A,CONDINUP,1905,..,-33.7619,116.5214,WA
9691,09A,COOYAH,1909,1925,-34,115.6,WA
9692,09A,BIDELLIA,1999,..,-34.2267,115.7597,WA
9693,09A,CUNDENUP,1912,1933,-33.8,115.8,WA
9694,09A,CUNYULGUP,1913,1927,-33.75,115,WA
9695,09A,DARDANUP,1885,2015,-33.3978,115.7536,WA
9696,09A,DENNINUP DOWNS,1907,1914,-33.9,116.8,WA
9697,09A,DENNINUP VALE,1906,1941,-33.9,116.7,WA
9698,09A,DINGUP,1897,1938,-34.2,116.2,WA
9699,09A,DONNELLY PARK,1913,1947,-34.2,115.9833,WA
9700,09A,DUDINALUP,1916,1924,-33.9,115.8,WA
9701,09A,DUNCANS MILL,1931,1943,-32.7,116.3,WA
9702,09A,DWELLINGUP RAILWAY,1915,1945,-32.7,116.1,WA
9703,09A,GIBSONS SOAK,1898,1915,-33.6,121.8,WA
9704,09A,GLENCOE,1919,1936,-34.1,116.9833,WA
9705,09A,GLEN MERVYN,1900,2002,-33.5203,116.0742,WA
9706,09A,GLENPENNENT,1918,1944,-34.3,116.3,WA
9707,09A,GLENWOOD,1926,1938,-33.2,116.4,WA
9708,09A,GREENFIELDS,1902,1909,-33.9,116.35,WA
9709,09A,GUNWARRIE,1911,1925,-34.3,117.2,WA
9710,09A,BUREKUP,1905,..,-33.3097,115.8186,WA
9711,09A,JARNADUP,1912,1942,-34.2833,116.1,WA
9712,09A,KILLARA 2,1933,1942,-34.1,115.8,WA
9713,09A,KINGURA,1912,1921,-34.3,116.2,WA
9714,09A,KIRUP,1911,..,-33.7039,115.8903,WA
9715,09A,THOMAS RIVER,1899,..,-33.8025,123.0331,WA
9716,09A,MAROONDAH DOWNS,1908,1923,-33.2,115.9,WA
9717,09A,MCLEODS CREEK STATE SCHOOL,1925,1936,-34.2,115.1,WA
9718,09A,MORDALUP,1900,1917,-34.3,116.6167,WA
9719,09A,NAPIER CREEK,1918,1942,-34.8,118,WA
9720,09A,MURILUP,1929,1936,-34.65,116.3,WA
9721,09A,DALYUP,1899,1934,-33.8,121.5,WA
9722,09A,WANDAGARRUP,1909,1936,-34.4,116,WA
9723,09A,PERUP,1918,1928,-34.3,116.5,WA
9724,09A,QUINDALUP SCHOOL,1924,1935,-33.6333,115.1,WA
9725,09A,RIVERSDALE,1913,1924,-34.3,116.9833,WA
9726,09A,RIVERSIDE,1900,1927,-34.4,116.4,WA
9727,09A,SAINT WERBURGHS,1893,1919,-34.7,117.6,WA
9728,09A,SANTA MARIE,1921,1931,-34.9,117.55,WA
9729,09A,JEDAVYN,1992,2009,-34.5458,118.1947,WA
9730,09A,COOMALBIDGUP,1958,2019,-33.6961,121.3656,WA
9731,09A,HOMEBUSH,1924,1937,-33.1,115.9,WA
9732,09A,MURRAY UPPER,1904,1911,-32.8167,116.1167,WA
9733,09A,WARABA,1918,1940,-32.8,115.8,WA
9734,09A,WHITTAKERS MILL,1924,1931,-32.5,116,WA
9735,09A,YANMAH SCHOOL,1928,1937,-34.2,116,WA
9736,09A,YARROWEE,1910,1943,-34.35,116.2,WA
9737,09A,YOULUP,1921,1936,-34.4,117.4,WA
9738,09A,MUJA POWER STATION,1962,..,-33.4531,116.3025,WA
9739,09A,TELINA DOWNS,1961,..,-33.6789,122.3311,WA
9740,09A,GORDON RIVER,1959,2011,-34.2358,117.1869,WA
9741,09A,ALBANY AIRPORT COMPARISON,1942,2014,-34.9414,117.8022,WA
9742,09A,BANNISTER NORTH,1963,1979,-32.5814,116.4442,WA
9743,09A,WAROONA WEST,1964,1984,-32.8883,115.7294,WA
9744,09A,PAYNEDALE,1977,..,-33.6469,115.7031,WA
9745,09A,GORDON RIVER,2000,..,-34.2492,117.2444,WA
9746,09A,WITCHCLIFFE,1999,..,-34.0281,115.1042,WA
9747,09A,WAROONA DAM,1964,1987,-32.8458,115.9792,WA
9748,09A,JAYES,1885,1890,-33.9167,116.4,WA
9749,09A,FAIRBRIDGE,1921,2010,-32.6042,115.9464,WA
9750,09A,WARENING HILLS,1966,1973,-32.7,115.95,WA
9751,09A,BREMER BAY POST OFFICE,1960,1969,-34.4,119.4,WA
9752,09A,DENBARKER,1966,..,-34.7451,117.3403,WA
9753,09A,PREVELLY PARK,1966,1967,-33.9833,114.9833,WA
9754,09A,METTLER,1966,..,-34.5961,118.5519,WA
9755,09A,YARRAGIL BROOK,1967,1977,-32.8333,116.2,WA
9756,09A,DAVIES BROOK,1967,1975,-32.7167,116.1333,WA
9757,09A,DUNNETS FARM,1967,1978,-34.45,115.9,WA
9758,09A,ALAMEIN TRACK,1967,1989,-34.4653,115.8325,WA
9759,09A,DOMBAKUP,1967,1977,-34.5667,116.1333,WA
9760,09A,GIBBS FARM,1967,1972,-33.4167,115.9,WA
9761,09A,WALLACE ROAD,1967,1971,-32.85,116.2,WA
9762,09A,MARYLANDS,1966,1974,-33.8333,122.6333,WA
9763,09A,DOMBAKUP BROOK,1967,1986,-34.6314,116.0536,WA
9764,09A,BEDFORD HARBOUR 1,1967,1970,-33.75,120.6,WA
9765,09A,RUTHVEN,1937,2000,-34.4322,117.3164,WA
9766,09A,LITTLE GROVE,1968,..,-35.0597,117.8658,WA
9767,09A,YALLINGUP,1968,1995,-33.6683,115.0428,WA
9768,09A,TARIPTA,1938,2003,-34.3606,117.6186,WA
9769,09A,CULFORD,1967,..,-32.5708,116.4354,WA
9770,09A,ANGUS DOWNS,1968,1976,-34.6667,117.3333,WA
9771,09A,YOONGARILLUP,1957,..,-33.7411,115.4697,WA
9772,09A,ERINAIR,1968,..,-33.7608,121.2156,WA
9773,09A,COOKERNUP,1968,1980,-32.9967,115.9008,WA
9774,09A,LOFTHOUSE,1968,1981,-33.6125,115.48,WA
9775,09A,DYMESBURY PARK,1968,1976,-34.95,117.8833,WA
9776,09A,ASTON DOWNS ALERT,2001,..,-33.7931,115.3189,WA
9777,09A,DALYUP,1968,1970,-33.65,121.5833,WA
9778,09A,MARGARET RIVER CALM,1968,2006,-33.935,115.0831,WA
9779,09A,BRANKSOME,1951,1951,-34.5333,117.6167,WA
9780,09A,GLEN ISTLE,1968,1987,-34.3842,116.1025,WA
9781,09A,BENJINUP,1937,1938,-33.7833,116.3333,WA
9782,09A,BANDICOOT NURSERY,1968,1988,-34.7406,117.4233,WA
9783,09A,HITHERGREEN,1969,1987,-33.7,115.5158,WA
9784,09A,KIMBERLEY,1969,..,-34.9319,117.1606,WA
9785,09A,CARUNUP,1936,1941,-33.7,115.1667,WA
9786,09A,TORBAY,1958,1960,-35,117.5833,WA
9787,09A,ECLIPSE ISLAND,1926,1973,-35.1833,117.8833,WA
9788,09A,BOYATUP,1901,1985,-33.8144,122.2942,WA
9789,09A,ESPERANCE,1969,..,-33.83,121.8925,WA
9790,09A,YARRAMIE,1970,1972,-34.3,119.1667,WA
9791,09A,CRAIGIAN,1920,1921,-34.5,116.1833,WA
9792,09A,QUININUP BARNES,1921,1924,-34.4,116.2167,WA
9793,09A,CAPE ARID,1906,1910,-33.9667,123.2167,WA
9794,09A,BEDFORD HARBOUR,1969,2003,-33.8039,120.6375,WA
9795,09A,DUNGALLY,1914,1927,-33,116.3,WA
9796,09A,COOMELMIA,1959,1996,-33.3856,121.3722,WA
9797,09A,THE CUMBERLAND,1936,1941,-34.1167,116.3667,WA
9798,09A,JERDACUTTUP,1970,2008,-33.8847,120.4222,WA
9799,09A,WAYCHINICUP DOWNS,1971,2002,-34.7744,118.2811,WA
9800,09A,LAKE WARDEN FARM,1970,..,-33.8097,121.8511,WA
9801,09A,ALEXANDRA BRIDGE,1971,..,-34.1597,115.1892,WA
9802,09A,THE OAKS,1967,..,-33.6633,121.6306,WA
9803,09A,CHAPMAN HILL,1951,..,-33.7831,115.3447,WA
9804,09A,ADINA,1969,..,-33.8811,122.2167,WA
9805,09A,WALPOLE FORESTRY,1970,..,-34.9769,116.7286,WA
9806,09A,LAKE CLIFTON,1919,1921,-32.8,115.6667,WA
9807,09A,COLLIE BOYS TOWN,1901,1920,-33.35,116.15,WA
9808,09A,ELGIN,1906,1909,-33.5167,115.6167,WA
9809,09A,STIRLING VIEW,1917,1918,-34.5,117.7833,WA
9810,09A,PINJARRA FARMLANDS,1970,2002,-32.6517,115.9067,WA
9811,09A,CRAWFORD DALE,1945,1947,-34.2167,116.5,WA
9812,09A,HARVEY,2000,2014,-33.0789,115.8806,WA
9813,09A,MOUNT HOWICK,1962,..,-33.7294,122.7552,WA
9814,09A,WELDSGIFT,1916,1918,-33.7,115.8,WA
9815,09A,THE DUKE,1971,..,-33.8819,122.5661,WA
9816,09A,LORT RIVER STATION,1963,..,-33.7256,121.3014,WA
9817,09A,THE BEEF MACHINE,1970,2000,-33.7517,122.3708,WA
9818,09A,YERRITUP,1966,1984,-33.7708,121.1058,WA
9819,09A,ESPERANCE AIRSTRIP ROAD,1972,1974,-33.8,121.9333,WA
9820,09A,CASTLE TOWN,1972,1972,-33.8333,121.9333,WA
9821,09A,GLENGOWAN,1972,1973,-33.8,122.6667,WA
9822,09A,DALYUP PARK,1899,..,-33.7753,121.555,WA
9823,09A,GEOVON,1972,1978,-33.6833,122.5,WA
9824,09A,JONEGATUP,1972,1994,-33.6519,120.9986,WA
9825,09A,ORLEANS FARM NORTH,1972,..,-33.7517,122.9128,WA
9826,09A,ORLEANS FARMS S.W.,1972,1988,-33.8019,122.8519,WA
9827,09A,SECOND BEACH,1972,2020,-33.8819,121.8597,WA
9828,09A,DUGANALLY,1914,1927,-32.9833,116.2167,WA
9829,09A,TALLANGATTA,1972,2011,-33.8911,120.3256,WA
9830,09A,LEEWANA PARK,1960,1976,-33.8667,115.9,WA
9831,09A,KING RIVER,1999,..,-34.9173,117.8862,WA
9832,09A,LOWER KALGAN,1972,2013,-34.9469,118.0039,WA
9833,09A,YARRAGIL BROOK,1972,1989,-32.8,116.25,WA
9834,09A,HAKEA,1972,1983,-33.6983,120.5492,WA
9835,09A,WAYJO PARK,1963,..,-34.4033,118.9689,WA
9836,09A,MYOLA,1972,1983,-33.8144,120.5136,WA
9837,09A,WELLSTEAD,1973,2015,-34.4889,118.6211,WA
9838,09A,RANCHO EL CENTIPEDO,1973,2003,-34.2939,115.1461,WA
9839,09A,BUCKINGHAM,1974,1978,-33.4,116.3167,WA
9840,09A,BUSSELTON OLD AIRPORT,1943,1946,-33.6333,115.3667,WA
9841,09A,ARKAROOLA,1975,1994,-35.0111,117.6425,WA
9842,09A,JARRAHWOOD,1975,..,-33.7964,115.6658,WA
9843,09A,FRANKLAND VINEYARDS,1975,..,-34.4417,116.9944,WA
9844,09A,HAY PARK,1976,1985,-33.3694,115.6378,WA
9845,09A,WOODVILLE,1977,1991,-34.3464,115.7808,WA
9846,09A,ELROY,2001,2001,-33.695,122.2269,WA
9847,09A,MOKINE DOWNS,1978,2004,-33.7794,122.715,WA
9848,09A,WINDRUSH,1959,..,-34.7711,118.1172,WA
9849,09A,OCEANVIEW FARMS,1981,1997,-33.8425,122.7622,WA
9850,09A,CARBARUP,1988,..,-34.5378,117.7197,WA
9851,09A,MANYPEAKS,2001,..,-34.9008,118.2019,WA
9852,09A,CHEYNE BEACH,2001,..,-34.8883,118.3958,WA
9853,09A,QUAALUP,1921,1946,-34.25,119.5,WA
9854,09A,AV-A-REST,1912,1987,-33.8017,116.6,WA
9855,09A,CORDERING,1950,1953,-33.5167,116.6,WA
9856,09A,GLENORCHY,1902,1944,-33.7,116.7,WA
9857,09A,QUINDANNING,1950,1971,-33.0333,116.5667,WA
9858,09A,SYLVAN LOCH,1935,1977,-33.65,116.5667,WA
9859,09A,HILLMAN,1915,1987,-33.3061,116.8031,WA
9860,09A,KINGSTONE,1949,1975,-34.05,116.85,WA
9861,09A,BEAUFORT PLN,1961,1978,-34.3833,118.8167,WA
9862,09A,CAPERCUP,1965,..,-33.5083,116.7386,WA
9863,09A,BROOKWOOD,1967,1972,-33.7167,116.7333,WA
9864,09A,NORTHUMBERLAND,1907,1908,-33.8667,116.85,WA
9865,09A,WARRA JARRA,1979,..,-34.3997,118.8867,WA
9866,09A,BALGA,1970,1977,-33.6833,120.7167,WA
9867,09A,LORINNA,1972,2017,-33.6511,122.0161,WA
9868,09A,MUNGLINUP,1970,..,-33.7078,120.8653,WA
9869,09A,GREENSLOPES,1935,1938,-32.7667,116.5833,WA
9870,09A,CAPE LE GRAND NAT PARK,1980,..,-33.9161,122.2083,WA
9871,09A,WINDY HARBOUR,1984,..,-34.8373,116.026,WA
9872,09A,MCARTHUR PARK,1984,1993,-33.1133,116.0225,WA
9873,09A,SOUTH DANDALUP DAM,1971,2010,-32.6492,116.0383,WA
9874,09A,NORTH DANDALUP DAM,1971,1992,-32.5233,116.0139,WA
9875,09A,MOUNT BARKER NORTH,1985,..,-34.5702,117.623,WA
9876,09A,CHOWERUP,1985,1990,-34.1311,116.7394,WA
9877,09A,LUDLOW,1985,..,-33.6033,115.4983,WA
9878,09A,WEST CRANBROOK,1983,1985,-34.2183,117.2975,WA
9879,09A,7 KM OFF SCARBOROUGH,1986,1987,-31.9,115.6833,WA
9880,09A,SOUTH PASSAGE PYLON,1986,1987,-32.0167,115.6167,WA
9881,09A,SW ROTTNEST ISLAND,1986,1987,-32.1167,115.4333,WA
9882,09A,FREMANTLE FPA BUILDING,1986,1987,-32.0333,115.7333,WA
9883,09A,SW ROTTNEST ISLAND 46M DEPTH,1986,1987,-32.1167,115.4333,WA
9884,09A,OFF SCARBOROUGH 22M DEPTH,1986,1987,-31.9,115.6833,WA
9885,09A,BUNBURY POWER STATION,1985,1995,-33.3158,115.66,WA
9886,09A,HAZELMERE,1987,1995,-33.7917,116.6031,WA
9887,09A,MANDURAH,1987,2001,-32.5211,115.75,WA
9888,09A,KENDENUP SOUTH,1988,1993,-34.5147,117.6692,WA
9889,09A,DEL PARK,1978,1993,-32.6544,116.0158,WA
9890,09A,PINJARRA MUDLAKES,1979,1994,-32.6367,115.9389,WA
9891,09A,PINJARRA REFINERY,1983,..,-32.6553,115.9309,WA
9892,09A,JARRAHDALE MINESITE,1972,1995,-32.2917,116.1022,WA
9893,09A,WILLOWDALE,1982,..,-32.9233,116.0078,WA
9894,09A,WAGERUP REFINERY,1981,..,-32.9183,115.9217,WA
9895,09A,WILLCHER FARM,1988,2003,-33.7878,123.1878,WA
9896,09A,BEN AVON,1988,1998,-34.7103,118.3764,WA
9897,09A,CAPE ARID NATIONAL PARK,1979,..,-33.8539,123.0074,WA
9898,09A,MARDALLIANG,1970,1998,-34.8208,118.3225,WA
9899,09A,KARRALEA,1972,..,-34.8883,118.0789,WA
9900,09A,CHORKERUP,1970,1994,-34.8364,117.6914,WA
9901,09A,ATHENA,1970,1995,-34.9964,117.7197,WA
9902,09A,FERN RIDGE,1972,2007,-34.8908,117.7094,WA
9903,09A,BROOK FARM,1971,1999,-34.5889,116.3433,WA
9904,09A,WALTERS FARM,1970,..,-34.5967,116.1072,WA
9905,09A,NERRAGAGUP POOL,1972,1999,-34.345,116.3639,WA
9906,09A,GLENGARREN,1973,..,-34.1378,116.2333,WA
9907,09A,YANMAH,1970,..,-34.2131,116.0231,WA
9908,09A,ONE TREE BRIDGE (HAZELMERE),1970,..,-34.2289,115.9294,WA
9909,09A,ASTON DOWNS,1972,..,-33.7914,115.3189,WA
9910,09A,CLOVERLOCK,1972,2001,-33.8325,115.3147,WA
9911,09A,CHARLIES CREEK,1971,..,-33.5947,115.9581,WA
9912,09A,FERGUSON VALLEY,1972,..,-33.445,115.8508,WA
9913,09A,EKAMURRA,1972,..,-33.6906,115.8439,WA
9914,09A,VALERN,1972,..,-33.3197,116.6464,WA
9915,09A,HILLVIEW FARM,1971,2012,-32.9981,115.9211,WA
9916,09A,CRENDON,1973,2014,-33.6422,115.8119,WA
9917,09A,PERIVALE ORCHARD,1973,..,-33.7058,115.7878,WA
9918,09A,RAVENSCLIFFE,1973,1999,-33.7653,115.8397,WA
9919,09A,HAZELVALE,1973,1988,-34.9,116.7881,WA
9920,09A,LOGUE BROOK DAM,1973,1991,-33.0067,115.9631,WA
9921,09A,OLDFIELD,1973,..,-33.6539,121.3683,WA
9922,09A,WEST LORT RIVER,1973,..,-33.6492,121.1972,WA
9923,09A,WORSLEY DOWNS,1973,..,-33.3156,115.9861,WA
9924,09A,WYNDARRA,1974,..,-34.2489,116.4969,WA
9925,09A,IRONSTONE GULLY,1973,1989,-33.6617,115.7067,WA
9926,09A,SCOTT RIVER,1974,2008,-34.2989,115.4447,WA
9927,09A,THE WOLD,1974,..,-33.6028,116.0128,WA
9928,09A,VERMEULEN,1974,..,-34.8389,116.7211,WA
9929,09A,DUCK LAKE,1983,1990,-35.0042,117.8608,WA
9930,09A,TAMARU,1966,..,-34.8802,118.0509,WA
9931,09A,TOOBURRA,1977,2001,-34.8736,118.0822,WA
9932,09A,WELLINGTON DAM,1976,1995,-33.3997,115.9786,WA
9933,09A,MANJIMUP WA CHIP&PULP,1982,1991,-34.3367,116.1083,WA
9934,09A,HARVEY WATER RESOURCES,1966,1992,-33.0767,115.91,WA
9935,09A,MANJIMUP WATER RESOURCES,1986,1993,-34.2411,116.1433,WA
9936,09A,HUNTLY,1990,..,-32.6239,116.0603,WA
9937,09A,BUSSELTON JETTY,1997,..,-33.6294,115.3383,WA
9938,09A,WELLINGTON MILL,1991,2005,-33.4761,115.9242,WA
9939,09A,FREMANTLE PORT,1952,1992,-32.0556,115.7394,WA
9940,09A,YARUNGA,1991,1993,-32.1206,116.0839,WA
9941,09A,COOLANGATA SOUTH,1991,1998,-33.8094,116.3831,WA
9942,09A,LEYTON,1993,1995,-30.9456,116.4994,WA
9943,09A,WORSLEY,1972,1996,-33.3167,116.05,WA
9944,09A,YERRITUP CREEK STN,1972,1972,-33.7167,121.0833,WA
9945,09A,MANJIMUP (SMITHS BROOK TRIB),1972,1993,-34.3667,116.2,WA
9946,09A,DONNELLY RIVER,1970,1993,-34.1833,116.1667,WA
9947,09A,DONNELLY RIVER,1970,1993,-34.1333,116.15,WA
9948,09A,ROSA BROOK,1972,1985,-33.9383,115.2669,WA
9949,09A,FERRARIS FARM,1972,1986,-33.4072,116.6242,WA
9950,09A,DONALDI,1972,1987,-33.4714,116.0106,WA
9951,09A,KELVIN BANK,1974,1982,-34.3175,116.5831,WA
9952,09A,WATERFALL GULLY,1974,1986,-34.0303,116.4392,WA
9953,09A,AURORA DOWNS,1979,1985,-33.5447,116.6444,WA
9954,09A,MERIVALE FARM,1983,..,-33.8097,122.0844,WA
9955,09A,NEWLEIGH,1958,2011,-33.7314,120.9308,WA
9956,09A,AUGUSTA EAST,1994,1999,-34.3133,115.1675,WA
9957,09A,PEACEFUL BAY,1994,..,-35.0367,116.9247,WA
9958,09A,KARRIVALE,1994,..,-34.6625,117.8394,WA
9959,09A,BUNINYONG,1994,2013,-33.8453,120.7625,WA
9960,09A,YOURDAMUNG LAKE,1994,..,-33.2022,116.2764,WA
9961,09A,HOPETOUN NORTH,1995,..,-33.9306,120.1283,WA
9962,09A,BROOKHAMPTON,1995,2006,-33.5925,115.8833,WA
9963,09A,GLENMORE,1965,2020,-33.6858,115.0153,WA
9964,09A,ROCKY GULLY,1995,..,-34.5714,117.0106,WA
9965,09A,BUNBURY,1995,..,-33.3567,115.6447,WA
9966,09A,OLD CULICUP,1996,..,-33.8578,116.675,WA
9967,09A,NARRIKUP WEST,1996,..,-34.7772,117.6508,WA
9968,09A,SHANNON,1996,..,-34.5683,116.3367,WA
9969,09A,WESTERN 2,1996,1998,-33.4264,116.245,WA
9970,09A,LOUGHREA,1962,2005,-33.8064,120.9128,WA
9971,09A,ACTON PARK,1998,..,-33.7845,115.4072,WA
9972,09A,AMBERGATE,1998,2003,-33.7333,115.3411,WA
9973,09A,BANYULA,1980,2017,-34.8675,118.2156,WA
9974,09A,FRENCHMAN BAY,1998,2012,-35.0955,117.9615,WA
9975,09A,BUNDALEER,1959,2001,-34.7031,118.2992,WA
9976,09A,PINJARRA SOUTH,1998,..,-32.6453,115.8644,WA
9977,09A,MANDURAH,2001,..,-32.5219,115.7119,WA
9978,09A,JINDONG,2002,..,-33.7563,115.2096,WA
9979,09A,CORAMUP,2002,..,-33.7622,121.9336,WA
9980,09A,KARRI VALLEY RESORT,2002,..,-34.4211,115.8519,WA
9981,09A,FOREST EDGE,2002,2011,-32.8392,115.9533,WA
9982,09A,HENTY BROOK,2002,..,-33.3889,115.8507,WA
9983,09A,STYLES TOWER,2002,..,-33.9123,115.8999,WA
9984,09A,VASSE HWY CB3,2009,..,-33.7033,115.4002,WA
9985,09A,LITTLE CHORKERUP,1963,..,-34.8342,117.7919,WA
9986,09A,WELLINGTON MILL ALERT,2002,2005,-33.4775,115.9258,WA
9987,09A,PAYNEDALE ALERT,2003,..,-33.6416,115.7033,WA
9988,09A,HAPPY VALLEY,2003,..,-33.6808,115.6242,WA
9989,09A,THOMSON BROOK,2003,..,-33.6458,115.9553,WA
9990,09A,BOYANUP NORTH,2003,..,-33.4777,115.7391,WA
9991,09A,DONNYBROOK EAST,2003,..,-33.5711,115.8383,WA
9992,09A,CAPEL NORTH,2003,..,-33.5435,115.5509,WA
9994,09A,COLLIE EAST,2002,..,-33.3608,116.1717,WA
9995,09A,LAKE SHASTER,2003,2010,-33.8044,120.6342,WA
9996,09A,LATITUDE 33 WINES,1993,2009,-33.8294,115.1903,WA
9997,09A,RAVENSCLIFFE ALERT,2003,..,-33.7647,115.8431,WA
9998,09A,NORTH WALPOLE,2004,..,-34.9469,116.7222,WA
9999,09A,ALBANY AIRPORT,2012,..,-34.9411,117.8158,WA
10000,10,AMERY ACRES,1934,..,-31.1683,117.0736,WA
10001,10,BAANDEE,1905,1976,-31.6,117.9667,WA
10002,10,BAANDEE NORTH,1911,..,-31.3667,117.9031,WA
10003,10,BALKULING,1913,1955,-31.9833,117.1,WA
10004,10,BEACON,1927,..,-30.4492,117.865,WA
10005,10,BUNINE,1933,1967,-30.3,117.9,WA
10006,10,BELKA,1912,..,-31.7269,118.1103,WA
10007,10,BENCUBBIN,1912,..,-30.8081,117.8603,WA
10008,10,BERRY BROW,1907,1950,-31.8167,116.5333,WA
10009,10,BOLGART,1906,..,-31.2744,116.5092,WA
10010,10,BONNIE DOON,1922,..,-30.9386,117.9642,WA
10011,10,BONNIE ROCK,1935,..,-30.4722,118.3819,WA
10012,10,BOODJERAKINE,1913,..,-31.5258,117.4064,WA
10013,10,BOORALAMING,1911,1946,-30.9,117.3,WA
10014,10,BRADFORDALE,1924,1994,-30.6056,117.5667,WA
10015,10,BROOKLEA,1946,1965,-31.6,116.5,WA
10016,10,BRUCE ROCK,1914,..,-31.8775,118.15,WA
10017,10,BUNGULLA NORTH,1913,..,-31.5547,117.5858,WA
10018,10,BURAKIN,1926,..,-30.5325,117.1739,WA
10019,10,BURRACOPPIN,1899,..,-31.3958,118.4808,WA
10020,10,WANOBBING,1912,1951,-31.9167,116.9667,WA
10021,10,NORTH BEACON,2002,..,-30.2008,117.9389,WA
10022,10,CARDONIA,1905,1980,-31.5,117.8025,WA
10023,10,WARRADONG FARM,1913,..,-31.5003,116.9411,WA
10024,10,CASUARINA VALE,1910,2005,-31.1631,116.8575,WA
10025,10,HELENA RIVER,2005,2009,-31.9389,116.4261,WA
10026,10,GOODLANDS,1951,..,-30.0606,117.1417,WA
10027,10,EADINE,1890,1962,-31.7167,116.5167,WA
10028,10,CLEARY,1937,1944,-30.4333,117.65,WA
10029,10,CLEARY SOUTH,1928,1980,-30.5311,117.6675,WA
10030,10,WATTONING,1896,..,-30.7767,118.1992,WA
10031,10,YORKRAKINE TBRG,2001,..,-31.3742,117.5861,WA
10032,10,COWCOWING,1907,..,-30.9964,117.3953,WA
10033,10,COWCOWING CENTRAL,1912,1950,-30.9,117.4667,WA
10034,10,FORT HILL,1912,..,-31.7272,118.2931,WA
10035,10,CUNDERDIN,1914,2012,-31.6494,117.2331,WA
10036,10,YOUNDEGIN,1947,..,-31.7972,117.3614,WA
10037,10,CUTTENING,1886,..,-31.7264,117.7644,WA
10038,10,DANDANNING,1947,2006,-31.0064,118.1975,WA
10039,10,DOODARDING WELL,1907,..,-31.0072,117.2042,WA
10040,10,DOODLAKINE,1910,..,-31.6089,117.8775,WA
10041,10,DOONGIN PEAK,1894,..,-31.6192,117.4372,WA
10042,10,DOWERIN,1904,..,-31.1936,117.0311,WA
10043,10,CALJIE,2000,..,-31.7661,116.9167,WA
10044,10,BUNGULLA,1928,..,-31.6231,117.5431,WA
10045,10,EJANDING,1907,..,-31.0114,117.1336,WA
10046,10,ELLABIN,1915,1957,-31.2,118.1,WA
10047,10,GUM PARK,1912,..,-31.0467,118.1514,WA
10048,10,WYOLA SOUTH,1930,1976,-31.7167,117.3833,WA
10049,10,ENDOMOORE,1948,1978,-30.3333,117.5167,WA
10050,10,ERIKIN,1929,1970,-31.9333,117.8833,WA
10051,10,REMLAP,1965,1980,-30.1403,117.57,WA
10052,10,ALEPPO,1910,..,-31.4453,117.2219,WA
10053,10,FRIARS WELL,1913,..,-31.7233,118.4372,WA
10054,10,MOUNT PLEASANT FARM,1919,1974,-30.9,117.8,WA
10055,10,GABBIN,1915,..,-30.7997,117.6806,WA
10056,10,INKPEN,1925,2011,-31.8042,116.4169,WA
10057,10,GOODLANDS 2,1921,1951,-30.1,117.1,WA
10058,10,GOOMALLING,1887,..,-31.2994,116.8269,WA
10059,10,GOOMARIN,1948,1988,-31.2347,118.4208,WA
10060,10,GRABALL,1912,..,-31.9889,118.5106,WA
10061,10,HAPPY VALLEY,1937,..,-31.1417,116.9558,WA
10062,10,ELY PARK,1902,1994,-31.2347,116.8819,WA
10063,10,HAWTHORNDEN,1912,2004,-31.5136,116.4583,WA
10064,10,BOLGART BIN,2001,..,-31.2747,116.5075,WA
10065,10,JENNABERRING,1908,1968,-31.9,117.5,WA
10066,10,JENNAPULLIN,1908,1964,-31.5167,116.7,WA
10067,10,JOUERDINE SOUTH,1931,1988,-30.7286,118.4147,WA
10068,10,WHITE WELLS,2004,..,-29.5817,116.9644,WA
10069,10,JUROKINE,1917,1968,-31.3,116.6,WA
10070,10,KALANNIE,1928,..,-30.3686,117.1133,WA
10071,10,KARLONING,1927,1988,-30.6447,118.13,WA
10072,10,KELLERBERRIN SOUTH,1944,2008,-31.7211,117.6586,WA
10073,10,KELLERBERRIN,1892,..,-31.6183,117.7217,WA
10074,10,KIRAMI,1912,1954,-31,117.9,WA
10075,10,MOUNT GIBSON,1982,..,-29.6061,117.4106,WA
10076,10,KONNONGORRING,1913,..,-31.0597,116.7319,WA
10077,10,KOORDA,1911,..,-30.825,117.4825,WA
10078,10,KORRELOCKING POST OFFICE,1912,1976,-31.2,117.4833,WA
10079,10,FAIR VIEW,1957,1963,-31.95,118.5833,WA
10080,10,JINGYMIA,1936,1985,-30.5006,117.4028,WA
10081,10,KULJA,1932,1972,-30.4667,117.2833,WA
10082,10,KUNUNOPPIN,1913,..,-31.1125,117.9186,WA
10083,10,THE PINES,1913,..,-31.3725,118.1961,WA
10084,10,GLAMOFF,1959,..,-30.1056,117.3597,WA
10085,10,LANAUBRA,1910,1973,-31.3,118,WA
10086,10,LAKE BROWN,1949,1959,-30.9333,118.3333,WA
10087,10,GLENROE,1956,1958,-31.9667,116.8667,WA
10088,10,WALLAMABIN PARK,1919,1969,-30.95,117.5333,WA
10089,10,LONG FOREST,2007,..,-31.3489,116.65,WA
10090,10,MANGOWINE,1887,1951,-31,118.1,WA
10091,10,MECKERING,1897,..,-31.6322,117.0081,WA
10092,10,MERREDIN,1903,..,-31.4756,118.2789,WA
10093,10,MERREDIN RESEARCH STATION,1911,2015,-31.4994,118.2242,WA
10094,10,NEILBOROUGH,1915,1993,-30.9069,118.1792,WA
10095,10,MILLSTON,1913,..,-31.5936,118.2347,WA
10096,10,MOLLERIN POST OFFICE,1928,1985,-30.4594,117.5217,WA
10097,10,MONINGARIN,1910,..,-30.6569,117.2625,WA
10098,10,MOORLANDS,1927,1944,-31.9,117.6,WA
10099,10,MOUNT CAROLINE,1904,1966,-31.8,117.6,WA
10100,10,KURRAJONG,1924,1983,-31.7983,118.5458,WA
10101,10,MOUNT MARSHALL EAST,1921,1964,-30.9,118,WA
10102,10,MUKINBUDIN,1928,..,-30.9156,118.2089,WA
10103,10,MUNTADGIN,1927,2008,-31.7578,118.5603,WA
10104,10,NANYANINE,1939,..,-31.4025,117.7239,WA
10105,10,GILAVIN,1925,2002,-30.6297,117.3675,WA
10106,10,NUKARNI,1912,1979,-31.2944,118.1997,WA
10107,10,MOUROUBRA,1946,2007,-29.7986,117.7044,WA
10108,10,NOKANING,1914,..,-31.3261,118.2464,WA
10109,10,NOONEGIN,1910,1972,-31.8833,118.1333,WA
10110,10,NORPA,1924,1955,-31.5833,118.4167,WA
10111,10,NORTHAM,1877,..,-31.6508,116.6586,WA
10112,10,NUNGARIN,1904,..,-31.1842,118.1006,WA
10113,10,PANTAPIN,1911,1991,-31.95,117.6533,WA
10114,10,PROSPECT,1912,1945,-30.8833,117.8,WA
10115,10,QUELLINGTON,1909,..,-31.7714,116.8647,WA
10116,10,QUONDONG,1920,..,-31.5397,117.4781,WA
10117,10,RABBIT FENCE 90 MILE,1905,1952,-30.1,118.5,WA
10118,10,BREAKELL,1914,..,-31.9917,118.0264,WA
10119,10,KITLANE,1913,..,-31.795,118.3947,WA
10120,10,DOODENANNING,1899,..,-31.9092,117.0986,WA
10121,10,TAMMIN,1911,..,-31.6431,117.4872,WA
10122,10,TELENNING HILL,1915,..,-31.8308,117.4875,WA
10123,10,THE GRANITES,1910,..,-31.9925,117.9325,WA
10124,10,NANGEENAN,1904,..,-31.5178,118.1694,WA
10125,10,TOODYAY,1877,..,-31.5517,116.4703,WA
10126,10,TRAYNING,1910,..,-31.1153,117.7942,WA
10127,10,TRESILLIAN,1909,1953,-31.7,117.9,WA
10128,10,WADDERIN,1925,1977,-32,118.4,WA
10129,10,MOUNT NODDY,2007,..,-31.5866,116.8862,WA
10130,10,BADGETOPPIN,1917,1932,-31.65,117.8,WA
10131,10,CULHAM,1887,1902,-31.4,116.4667,WA
10132,10,MOUNT HARDEY,2007,..,-31.9209,116.8151,WA
10133,10,WALK WALKIN,1909,..,-30.8256,117.3228,WA
10134,10,WATTENING,1913,..,-31.3119,116.515,WA
10135,10,WIALKI,1931,..,-30.4869,118.1258,WA
